화장실명,남녀공용화장실여부,남성용-장애인용대변기수,개방시간,관리기관명,남성용-대변기수,남성용-장애인용소변기수,전화번호,소재지지번주소,여성용-대변기수,구분,남성용-소변기수,경도,여성용-어린이용대변기수,소재지도로명주소,남성용-어린이용대변기수,남성용-어린이용소변기수,위도,여성용-장애인용대변기수,설치년도,데이터기준일자
무등경기장앞,N,1,24시간,광주광역시 북구청,3,0,062-410-6475,광주광역시 북구 임동 329,6,공중화장실,5,126.8908154,0,광주광역시 북구 서림로 9(임동),0,0,35.1684307,1,,2018-07-09
5.18소공원,N,1,24시간,광주광역시 북구청,2,0,062-410-6475,광주광역시 북구 용봉동 252-4,3,공중화장실,3,126.9062834,0,광주광역시 북구 용봉로 87(용봉동),0,0,35.17275935,0,,2018-07-09
삼정골,N,1,24시간,광주광역시 북구청,2,0,062-410-6475,광주광역시 북구 두암동 126-2,2,공중화장실,2,126.9394986,0,광주광역시 북구 삼정로66번길 42-17 (두암동),0,0,35.1702567,1,,2018-07-09
풍암정,N,0,24시간,광주광역시 북구청,1,0,062-410-6475,광주광역시 북구 금곡동 656,2,공중화장실,1,126.9933398,0,광주광역시 북구 풍암제길 109 (금곡동),0,0,35.16129409,0,,2018-07-09
두암체육공원,N,0,24시간,광주광역시 북구청,2,0,062-410-6475,광주광역시 북구 두암동 126-2,3,공중화장실,2,126.9394986,0,광주광역시 북구 삼정로66번길 42-17 (두암동),0,0,35.1702567,0,,2018-07-09
시화문화마을,N,1,24시간,광주광역시 북구청,2,0,062-410-6475,광주광역시 북구 각화동 100,5,공중화장실,3,126.9415782,0,광주광역시 북구 각화대로 103-5 (각화동),0,0,35.17871245,1,,2018-07-09
일곡제1근린공원(사무실옆)上,N,1,24시간,광주광역시 북구청,1,0,062-410-6438,광주광역시 북구 일곡동 850-1,3,공중화장실,2,126.8954453,0,광주광역시 북구 일곡택지로 88 (일곡동),0,0,35.20797542,1,,2018-07-09
일곡제1근린공원下,N,0,24시간,광주광역시 북구청,1,0,062-410-6438,광주광역시 북구 일곡동 850-1,2,공중화장실,3,126.8954453,0,광주광역시 북구 일곡택지로 88 (일곡동),0,0,35.20797542,0,,2018-07-09
일곡제2근린공원(중앙초교옆),N,0,24시간,광주광역시 북구청,1,0,062-410-6438,광주광역시 북구 일곡동 820-2,2,공중화장실,3,126.8983947,0,광주광역시 북구 설죽로 526 (일곡동),0,0,35.20649972,0,,2018-07-09
일곡제3근린공원(일곡중옆),N,0,24시간,광주광역시 북구청,1,0,062-410-6438,광주광역시 북구 일곡동 848-3,2,공중화장실,3,126.8962296,0,광주광역시 북구 양일로 297 (일곡동),0,0,35.20259322,0,,2018-07-09
들샘어린이공원,N,1,24시간,광주광역시 북구청,1,0,062-410-6438,광주광역시 북구 일곡동 849-7,2,공중화장실,2,126.8970029,0,광주광역시 북구 일곡마을로 38 (일곡동),0,0,35.20596855,0,,2018-07-09
첨단체육공원(운동장),N,1,24시간,광주광역시 북구청,2,0,062-410-6438,광주광역시 북구 오룡동 1113,3,공중화장실,3,126.8544983,0,광주광역시 북구 임방울대로 877 (오룡동),0,0,35.21837439,0,,2018-07-09
첨단체육공원(테니스장),N,0,24시간,광주광역시 북구청,1,0,062-410-6438,광주광역시 북구 오룡동 1113,1,공중화장실,2,126.8544983,0,광주광역시 북구 임방울대로 37 (오룡동),0,0,35.21837439,0,,2018-07-09
강변공원,N,1,24시간,광주광역시 북구청,2,0,062-410-6438,광주광역시 북구 월출동 968,3,공중화장실,2,126.8663366,0,광주광역시 북구 추암로 190 (월출동),0,0,35.23301873,0,,2018-07-09
어울림어린이공원,N,1,24시간,광주광역시 북구청,1,0,062-410-6438,광주광역시 북구 두암동 890-4,2,공중화장실,1,126.9277456,0,광주광역시 북구 서방로148번길 18 (두암동),0,0,35.16883332,0,,2018-07-09
군황어린이공원,N,1,24시간,광주광역시 북구청,0,0,062-410-6438,광주광역시 북구 두암동 975-6,2,공중화장실,2,126.9396407,0,광주광역시 북구 무진성길 58 (두암동),0,0,35.16212651,1,,2018-07-09
삼정어린이공원,Y,0,24시간,광주광역시 북구청,1,0,062-410-6438,광주광역시 북구 두암동 969-10,0,공중화장실,2,126.9375115,0,광주광역시 북구 삼정로 64 (두암동),0,0,35.16769944,0,,2018-07-09
장수어린이공원,N,1,24시간,광주광역시 북구청,1,0,062-410-6438,광주광역시 북구 두암동 969-9,2,공중화장실,2,126.9387013,0,광주광역시 북구 갈마로 73 (두암동),0,0,35.16199625,0,,2018-07-09
송학어린이공원,N,0,24시간,광주광역시 북구청,1,0,062-410-6438,광주광역시 북구 두암동 968-5,2,공중화장실,1,126.9345848,0,광주광역시 북구 삼정로 7 (두암동),0,0,35.16528946,0,,2018-07-09
부영어린이공원,N,1,24시간,광주광역시 북구청,1,0,062-410-6438,광주광역시 북구 두암동 952,2,공중화장실,2,126.9356359,0,광주광역시 북구 삼정로 71-1 (두암동),0,0,35.16865389,0,,2018-07-09
초롱어린이공원,N,0,24시간,광주광역시 북구청,1,0,062-410-6438,광주광역시 북구 두암동 951,2,공중화장실,2,126.9382919,0,광주광역시 북구 삼정로82번길 13-4 (두암동),0,0,35.16925738,0,,2018-07-09
무진어린이공원,N,0,24시간,광주광역시 북구청,1,0,062-410-6438,광주광역시 북구 두암동 950,1,공중화장실,1,126.9358188,0,광주광역시 북구 삼정로95번길 27 (두암동),0,0,35.17059371,0,,2018-07-09
우리어린이공원,Y,0,24시간,광주광역시 북구청,1,0,062-410-6438,광주광역시 북구 우산동 602-1,0,공중화장실,1,126.9212187,0,광주광역시 북구 중문로84번길 5 (우산동),0,0,35.18022241,0,,2018-07-09
두암제1근린공원,N,1,24시간,광주광역시 북구청,2,0,062-410-6438,광주광역시 북구 두암동 969-4,2,공중화장실,2,126.9376496,0,광주광역시 북구 삼정로 36 (두암동),0,0,35.16510359,0,,2018-07-09
둘리어린이공원,N,0,24시간,광주광역시 북구청,1,0,062-410-6438,광주광역시 북구 두암동 854-8,2,공중화장실,1,126.9316297,0,광주광역시 북구 서방로181번길 43 (두암동),0,0,35.17086904,1,,2018-07-09
용봉북어린이공원,N,1,24시간,광주광역시 북구청,1,0,062-410-6438,광주광역시 북구 용봉동 1335-1,2,공중화장실,1,126.8965305,0,광주광역시 북구 문화소통로 22(용봉동),0,0,35.1794216,0,,2018-07-09
평교어린이공원,N,1,24시간,광주광역시 북구청,0,0,062-410-6438,광주광역시 북구 문흥동 925-6,2,공중화장실,2,126.9249169,0,광주광역시 북구 평교로 23 (문흥동),0,0,35.17951449,1,,2018-07-09
푸른공원,N,0,24시간,광주광역시 북구청,1,0,062-410-6438,광주광역시 북구 동림동 1158-1,2,공중화장실,1,126.8676792,0,광주광역시 북구 동림용산로 30 (동림동),0,0,35.18822305,0,,2018-07-09
소망어린이공원,N,0,24시간,광주광역시 북구청,2,0,062-410-6438,광주광역시 북구 문흥동 1010-3,0,공중화장실,3,126.9214515,0,광주광역시 북구 문산로 27-7 (문흥동),0,0,35.18467526,0,,2018-07-09
철쭉어린이공원,N,1,24시간,광주광역시 북구청,1,0,062-410-6438,광주광역시 북구 문흥동 1011-6,2,공중화장실,1,126.921032,0,광주광역시 북구 문산로 4 (문흥동),0,0,35.18254778,1,,2018-07-09
백일홍어린이공원,N,1,24시간,광주광역시 북구청,1,0,062-410-6438,광주광역시 북구 문흥동 1011-4,2,공중화장실,1,126.9247646,0,광주광역시 북구 천지인로 241 (문흥동),0,0,35.18267635,1,,2018-07-09
동심어린이공원,Y,0,24시간,광주광역시 북구청,2,0,062-410-6438,광주광역시 북구 문흥동 996-4,0,공중화장실,3,126.9224162,0,광주광역시 북구 문산로 43-8 (문흥동),0,0,35.18626587,0,,2018-07-09
느티나무어린이공원,N,0,24시간,광주광역시 북구청,1,0,062-410-6438,광주광역시 북구 문흥동 995-4,2,공중화장실,3,126.9241219,0,광주광역시 북구 서하로 407 (문흥동),0,0,35.18438492,0,,2018-07-09
문산어린이공원,N,1,24시간,광주광역시 북구청,1,0,062-410-6438,광주광역시 북구 문흥동 993-1,2,공중화장실,1,126.9261619,0,광주광역시 북구 부남길8번길 10 (문흥동),0,0,35.18665399,1,,2018-07-09
바느실어린이공원,N,1,24시간,광주광역시 북구청,0,0,062-410-6438,광주광역시 북구 문흥동 972-2,2,공중화장실,2,126.923831,0,광주광역시 북구 대천로 186 (문흥동),0,0,35.19022191,1,,2018-07-09
송정어린이공원,Y,0,24시간,광주광역시 북구청,2,0,062-410-6438,광주광역시 북구 문흥동 970-1,0,공중화장실,3,126.9213228,0,광주광역시 북구 대천로157번길 73 (문흥동),0,0,35.19067459,0,,2018-07-09
진달래어린이공원,N,1,24시간,광주광역시 북구청,0,0,062-410-6438,광주광역시 북구 문흥동 955-1,2,공중화장실,2,126.920325,0,광주광역시 북구 서하로355번길 12 (문흥동),0,0,35.18696036,1,,2018-07-09
고운어린이공원,N,1,24시간,광주광역시 북구청,1,0,062-410-6438,광주광역시 북구 오치동 981-6,2,공중화장실,3,126.9102511,0,광주광역시 북구 서하로274번길 16 (오치동),0,0,35.18627549,0,,2018-07-09
장미어린이공원,Y,0,24시간,광주광역시 북구청,2,0,062-410-6438,광주광역시 북구 문흥동 1004-7,0,공중화장실,3,126.9194962,0,광주광역시 북구 대천로 119-1 (문흥동),0,0,35.18576281,0,,2018-07-09
현대어린이공원,N,1,24시간,광주광역시 북구청,1,0,062-410-6438,광주광역시 북구 우산동 631-2,2,공중화장실,1,126.9199588,0,광주광역시 북구 중문로83번길 7-10 (우산동),0,0,35.17976369,0,,2018-07-09
그린어린이공원,N,0,24시간,광주광역시 북구청,1,0,062-410-6438,광주광역시 북구 우산동 203-1,1,공중화장실,1,126.924544,0,광주광역시 북구 서방로81번길 88 (우산동),0,0,35.17435489,0,,2018-07-09
충효어린이공원,Y,0,24시간,광주광역시 북구청,1,0,062-410-6438,광주광역시 북구 우산동 633-5,0,공중화장실,2,126.9185749,0,광주광역시 북구 서방로39번길 68 (우산동),0,0,35.17600952,0,,2018-07-09
개나리어린이공원,Y,0,24시간,광주광역시 북구청,1,0,062-410-6438,광주광역시 북구 문흥동 787-7,0,공중화장실,2,126.9170025,0,광주광역시 북구 문화소통로 214 (문흥동),0,0,35.18065585,0,,2018-07-09
사랑어린이공원,N,1,24시간,광주광역시 북구청,1,0,062-410-6438,광주광역시 북구 우산동 633-2,2,공중화장실,1,126.9188025,0,광주광역시 북구 중문로 55(우산동),0,0,35.17668389,1,,2018-07-09
용봉어린이공원,N,1,24시간,광주광역시 북구청,0,0,062-410-6438,광주광역시 북구 용봉동 1270,2,공중화장실,2,126.9142736,0,광주광역시 북구 문화소통로 186 (용봉동),0,0,35.18242782,1,,2018-07-09
문화근린(상)공원,N,0,24시간,광주광역시 북구청,2,0,062-410-6438,광주광역시 북구 문흥동 1009-1,2,공중화장실,2,126.9166864,0,광주광역시 북구 대천로 86(문흥동),0,0,35.18491724,0,,2018-07-09
문화근린(하)공원,N,1,24시간,광주광역시 북구청,3,0,062-410-6438,광주광역시 북구 문흥동 1009-1,8,공중화장실,5,126.9166864,0,광주광역시 북구 대천로 86(문흥동),0,0,35.18491724,1,,2018-07-09
우산근린공원(상),N,1,24시간,광주광역시 북구청,2,0,062-410-6438,광주광역시 북구 우산동 228-1,5,공중화장실,3,126.9262509,0,광주광역시 북구 동문대로 141 (우산동),0,0,35.17568274,0,,2018-07-09
우산근린공원(하),N,1,24시간,광주광역시 북구청,2,0,062-410-6438,광주광역시 북구 우산동 147,5,공중화장실,3,126.9262509,0,광주광역시 북구 감적길 21(우산동),0,0,35.17568274,1,,2018-07-09
꿈동산어린이공원,N,0,24시간,광주광역시 북구청,1,0,062-410-6438,광주광역시 북구 두암동 588-5,2,공중화장실,1,126.9331745,0,광주광역시 북구 군왕로171번길 10-7 (두암동),0,0,35.17713614,0,,2018-07-09
가작어린이공원,N,1,24시간,광주광역시 북구청,2,0,062-410-6438,광주광역시 북구 삼각동 792-1,3,공중화장실,2,126.8996346,0,광주광역시 북구 설죽로 439 (삼각동),0,0,35.19845708,0,,2018-07-09
대상공원,N,0,24시간,광주광역시 북구청,1,0,062-410-6791,광주광역시 북구 동림동 140-1,2,공중화장실,2,126.8632939,0,광주광역시 북구 북문대로272번길 16(동림동),0,0,35.18958103,0,,2018-07-09
양산호수공원,N,1,24시간,광주광역시 북구청,3,0,062-410-6438,광주광역시 북구 양산동 288-4,7,공중화장실,2,126.8736607,1,광주광역시 북구 양산동 288-4,1,1,35.20253212,1,,2018-07-09
첨단2산업 체육공원,N,1,24시간,광주광역시 북구청,3,0,062-410-6438,광주광역시 북구 연제동 1059,6,공중화장실,3,126.862174,1,광주광역시 북구 첨단연신로29번길 23(연제동),1,1,35.19943588,1,,2018-07-09
영산강대상근린(하),N,0,24시간,광주광역시 북구청,1,0,062-410-6438,광주광역시 북구 오룡동 1117,3,공중화장실,2,126.8583413,0,광주광역시 북구 추암로 30(오룡동),0,0,35.21910724,0,,2018-07-09
첨단2주거1호근린공원,N,1,24시간,광주광역시 북구청,2,0,062-410-6438,광주광역시 북구 신용동 680,5,공중화장실,3,126.861146,0,광주광역시 북구 첨단연신로107번길 26(신용동),0,0,35.208862,1,,2018-07-09
용봉동부어린이공원,N,1,24시간,광주광역시 북구청,1,0,062-410-6438,광주광역시 북구 용봉동 1368-1,1,공중화장실,1,126.8882173,0,광주광역시 북구 저불로70번길 14(용봉동),0,0,35.1801631,1,,2018-07-09
한새봉농업생태공원,N,1,24시간,광주광역시 북구청,1,0,062-410-6438,광주광역시 북구 일곡동 932-1,1,공중화장실,1,126.8882921,0,광주광역시 북구 소해로 61(일곡동),0,0,35.2082973,1,,2018-07-09
무등어린이공원,N,0,24시간,광주광역시 북구청,1,0,062-410-6438,광주광역시 북구 두암동 595-5,1,공중화장실,1,126.936537,0,광주광역시 북구 월동로 67(두암동),0,0,35.177119,0,,2018-07-09
한새어린이공원,N,0,24시간,광주광역시 북구청,1,0,062-410-6438,광주광역시 북구 일곡동 814-2,1,공중화장실,1,126.897389,0,광주광역시 북구 소해로 100(일곡동),0,0,35.213185,0,,2018-07-09
각화저수지,N,1,24시간,광주광역시 북구청,1,1,062-410-6438,광주광역시 북구 각화동 60,1,공중화장실,1,126.945256,0,광주광역시 북구 각화대로 130-39(각화동),0,0,35.17950726,1,,2018-07-09
첨단2산업 2호근린공원,N,0,24시간,광주광역시 북구청,2,0,062-410-6438,광주광역시 북구 연제동 1020,4,공중화장실,2,126.859813,0,광주광역시 북구 연제동 1020,0,0,35.197827,0,,2018-07-09
풍향골어린이공원,N,0,24시간,광주광역시 북구청,1,0,062-410-6438,광주광역시 북구 풍향동 808,2,공중화장실,1,126.929722,0,광주광역시 북구 광주광역시 북구 군왕로 17(풍향동),0,0,35.163551,0,,2018-07-09
중흥1동 주민센터,N,0,09:00~18:00,광주광역시 북구청,1,0,062-410-6475,광주광역시 북구 중흥동 650-7,3,개방화장실,2,126.9137773,0,광주광역시 북구 중흥로183번길 7(중흥동),0,0,35.16168543,0,,2018-07-09
중흥2동 주민센터,N,0,09:00~18:00,광주광역시 북구청,1,0,062-410-6475,광주광역시 북구 중흥동 347-1,2,개방화장실,2,126.9092391,0,광주광역시 북구 우치로 1번길 10(중흥동),0,0,35.16828727,1,,2018-07-09
중흥3동 주민센터,N,0,09:00~18:00,광주광역시 북구청,2,0,062-410-6475,광주광역시 북구 중흥동 268-40,1,개방화장실,1,126.9171296,0,광주광역시 북구 서방로 40번길 12(중흥동),0,0,35.17228413,0,,2018-07-09
중앙동 주민센터,N,0,09:00~18:00,광주광역시 북구청,1,0,062-410-6475,광주광역시 북구 유동 14-6,2,개방화장실,2,126.9065777,0,광주광역시 북구 금재로 30(유동),0,0,35.15732111,0,,2018-07-09
임동 주민센터,N,0,09:00~18:00,광주광역시 북구청,2,0,062-410-6475,광주광역시 북구 임동 129-2,2,개방화장실,2,126.8942478,0,광주광역시 북구 서림로 53(임동),0,0,35.16587389,1,,2018-07-09
신안동 주민센터,N,0,09:00~18:00,광주광역시 북구청,2,0,062-410-6475,광주광역시 북구 신안동 500-5,1,개방화장실,2,126.8987243,0,광주광역시 북구 자산로 66(신안동),0,0,35.16744247,1,,2018-07-09
용봉동 주민센터,N,0,09:00~18:00,광주광역시 북구청,2,0,062-410-6475,광주광역시 북구 용봉동 1228-7,3,개방화장실,1,126.9011762,0,광주광역시 북구 용주로 18번길 28(용봉동),0,0,35.1803988,0,,2018-07-09
운암1동 주민센터,N,0,09:00~18:00,광주광역시 북구청,2,0,062-410-6475,광주광역시 북구 운암동 841-10,2,개방화장실,2,126.8744368,0,광주광역시 북구 동운로 201번길 55(운암동),0,0,35.17486494,0,,2018-07-09
운암2동 주민센터,N,0,09:00~18:00,광주광역시 북구청,4,0,062-410-6475,광주광역시 북구 운암동 329-1,4,개방화장실,4,126.8850985,0,광주광역시 북구 죽봉대로 214(운암동),0,0,35.1725238,0,,2018-07-09
운암3동 주민센터,N,0,09:00~18:00,광주광역시 북구청,3,0,062-410-6475,광주광역시 북구 운암동 1054-10,3,개방화장실,2,126.8743149,0,광주광역시 북구 서강로 129(운암동),0,0,35.18275709,0,,2018-07-09
동림동 주민센터,N,0,09:00~18:00,광주광역시 북구청,4,0,062-410-6475,광주광역시 북구 동림동 41,4,개방화장실,4,126.8646384,0,광주광역시 북구 북문대로 247번길 12-2(동림동),0,0,35.18660807,0,,2018-07-09
우산동 주민센터,N,0,09:00~18:00,광주광역시 북구청,1,0,062-410-6475,광주광역시 북구 우산동 264-6,2,개방화장실,1,126.9209384,0,광주광역시 북구 동문대로 59-4(우산동),0,0,35.17030369,0,,2018-07-09
풍향동 주민센터,N,0,09:00~18:00,광주광역시 북구청,5,0,062-410-6475,광주광역시 북구 풍향동 597-8,4,개방화장실,6,126.9231525,0,광주광역시 북구 필문대로 29번길 10(풍향동),0,0,35.16454003,0,,2018-07-09
문화동 주민센터,N,0,09:00~18:00,광주광역시 북구청,1,0,062-410-6475,광주광역시 북구 각화동 224-12,2,개방화장실,2,126.9368598,0,광주광역시 북구 군왕로 233(각화동),0,0,35.18149708,0,,2018-07-09
문흥1동 주민센터,N,0,09:00~18:00,광주광역시 북구청,2,0,062-410-6475,광주광역시 북구 문흥동 996-6,3,개방화장실,2,126.9216296,0,광주광역시 북구 대천로 140-3(문흥동),0,0,35.18676652,0,,2018-07-09
문흥2동 주민센터,N,0,09:00~18:00,광주광역시 북구청,2,0,062-410-6475,광주광역시 북구 문흥동 1010-9,2,개방화장실,2,126.9219174,0,광주광역시 북구 문산로 25(문흥동),0,0,35.18432223,0,,2018-07-09
두암1동 주민센터,N,0,09:00~18:00,광주광역시 북구청,1,0,062-410-6475,광주광역시 북구 두암동 862-13,1,개방화장실,1,126.9289643,0,광주광역시 북구 동문대로110번길 77(두암동),0,0,35.17103696,0,,2018-07-09
두암2동 주민센터,N,0,09:00~18:00,광주광역시 북구청,2,0,062-410-6475,광주광역시 북구 두암동 829-8,3,개방화장실,2,126.932044,0,광주광역시 북구 면앙로192번길 22(두암동),0,0,35.17424756,0,,2018-07-09
두암3동 주민센터,N,0,09:00~18:00,광주광역시 북구청,2,0,062-410-6475,광주광역시 북구 두암동 249,2,개방화장실,2,126.9347535,0,광주광역시 북구 삼정로 3번길 25(두암동),0,0,35.16301813,0,,2018-07-09
삼각동 주민센터,N,0,09:00~18:00,광주광역시 북구청,4,0,062-410-6475,광주광역시 북구 삼각동 791-2,2,개방화장실,4,126.8994886,0,광주광역시 북구 설죽로 447(삼각동),0,0,35.19926457,2,,2018-07-09
일곡동 주민센터,N,0,09:00~18:00,광주광역시 북구청,2,0,062-410-6475,광주광역시 북구 일곡동 849-5,2,개방화장실,3,126.8972795,0,광주광역시 북구 설죽로 525(일곡동),0,0,35.20603007,0,,2018-07-09
매곡동 주민센터,N,0,09:00~18:00,광주광역시 북구청,2,0,062-410-6475,광주광역시 북구 매곡동 80,2,개방화장실,2,126.8920694,0,광주광역시 북구 매곡로 69번길 25(매곡동),0,0,35.18963533,0,,2018-07-09
오치1동 주민센터,N,0,09:00~18:00,광주광역시 북구청,4,0,062-410-6475,광주광역시 북구 오치동 941-22,1,개방화장실,4,126.9081312,0,광주광역시 북구 우치로 274번길 48(오치동),0,0,35.18910416,0,,2018-07-09
오치2동 주민센터,N,0,09:00~18:00,광주광역시 북구청,2,0,062-410-6475,광주광역시 북구 오치동 861-58,2,개방화장실,2,126.9004838,0,광주광역시 북구 서하로183번길 29(오치동),0,0,35.19004634,0,,2018-07-09
석곡동  주민센터,N,0,09:00~18:00,광주광역시 북구청,4,0,062-410-6475,광주광역시 북구 망월동 668-3,4,개방화장실,4,126.9500443,0,광주광역시 북구 석곡로 634(망월동),0,0,35.21501557,0,,2018-07-09
건국동 주민센터,N,0,09:00~18:00,광주광역시 북구청,2,0,062-410-6475,광주광역시 북구 본촌동 378-1,2,개방화장실,2,126.8816343,0,광주광역시 북구 본촌마을길 25(본촌동),0,0,35.22294676,0,,2018-07-09
양산동 주민센터,N,1,09:00~18:00,광주광역시 북구청,1,0,062-410-6475,광주광역시 북구 양산동 1019,2,개방화장실,2,126.8796423,0,광주광역시 북구 양산택지로 32(양산동),0,0,35.20916495,1,,2018-07-09
북구보건소,N,0,09:00~18:00,광주광역시 북구청,12,0,062-410-6475,광주광역시 북구 중흥동 359,8,개방화장실,10,126.9121403,0,광주광역시 북구 우치로 65(중흥동),0,0,35.17334422,0,,2018-07-09
북구청 구내매점앞,N,0,09:00~18:00,광주광역시 북구청,2,0,062-410-6475,광주광역시 북구 용봉동 239-2,1,개방화장실,2,126.9121086,0,광주광역시 북구 우치로 77(용봉동),0,0,35.17428882,0,,2018-07-09
일곡도서관,N,0,09:00~18:00,광주광역시 북구청,18,0,062-410-6475,광주광역시 북구 일곡동 850-2,19,개방화장실,15,126.8956842,0,광주광역시 북구 일곡마을로 198(일곡동),0,0,35.210092,0,,2018-07-09
운암도서관,N,0,09:00~18:00,광주광역시 북구청,10,0,062-410-6475,광주광역시 북구 운암동 303-2,10,개방화장실,6,126.8752233,0,광주광역시 북구 북문대로 118(운암동),0,0,35.1802811,0,,2018-07-09
북구노인종합복지회관,N,0,09:00~18:00,광주광역시 북구청,9,0,062-410-6475,광주광역시 북구 두암동 456-9,8,개방화장실,11,126.9343596,0,광주광역시 북구 군왕로 130번길 30(두암동),0,0,35.17235959,0,,2018-07-09
광주광역시장애인종합복지관,N,1,09:00~18:00,광주광역시 북구청,11,0,062-410-6475,광주광역시 북구 동림동 24,14,개방화장실,22,126.867851,0,광주광역시 북구 북문대로 219(동림동),0,0,35.18518026,1,,2018-07-09
엠마우스복지관,N,0,09:00~18:00,광주광역시 북구청,9,0,062-410-6475,광주광역시 북구 운암동 480-2,5,개방화장실,4,126.8845704,0,광주광역시 북구 북문대로20번길 38(운암동),0,0,35.17562135,0,,2018-07-09
광주종합사회복지관,N,0,09:00~18:00,광주광역시 북구청,3,0,062-410-6475,광주광역시 북구 오치동 912-1,6,개방화장실,6,126.9027827,0,광주광역시 북구 우치로311번길 15(오치동),0,0,35.19208527,0,,2018-07-09
두암종합사회복지관,N,0,09:00~18:00,광주광역시 북구청,3,0,062-410-6475,광주광역시 북구 두암동 968-1,2,개방화장실,3,126.9345848,0,광주광역시 북구 삼정로 7(두암동),0,0,35.16528946,0,,2018-07-09
각화종합사회복지관,N,0,09:00~18:00,광주광역시 북구청,2,0,062-410-6475,광주광역시 북구 각화동 202,1,개방화장실,3,126.9340719,0,광주광역시 북구 군왕로207번길 20(각화동),0,0,35.18068797,0,,2018-07-09
우산종합사회복지관,N,0,09:00~18:00,광주광역시 북구청,5,0,062-410-6475,광주광역시 북구 우산동 633-1,5,개방화장실,6,126.9188025,0,광주광역시 북구 중문로 55(우산동),0,0,35.17668389,0,,2018-07-09
시민종합사회복지관,N,0,09:00~18:00,광주광역시 북구청,1,0,062-410-6475,광주광역시 북구 양산동 657-2,2,개방화장실,3,126.8730537,0,광주광역시 북구 양일로 76-1(양산동),0,0,35.19740459,0,,2018-07-09
오치종합사회복지관,N,0,09:00~18:00,광주광역시 북구청,1,0,062-410-6475,광주광역시 북구 오치동 1003,2,개방화장실,1,126.9009769,0,광주광역시 북구 서하로 194번길 6(오치동),0,0,35.18543902,0,,2018-07-09
광주역,N,1,24시간,광주광역시 북구청,14,0,062-410-6475,광주광역시 북구 중흥동 611,18,개방화장실,15,126.9094573,2,광주광역시 북구 무등로 235 (중흥동),3,0,35.16556172,1,,2018-07-09
무등도서관,N,0,09:00~18:00,광주광역시 북구청,6,0,062-410-6475,광주광역시 북구 우산동 213-4,10,개방화장실,6,126.9252753,0,광주광역시 북구 면앙로 130(우산동),0,0,35.17650418,0,,2018-07-09
광주광역시립민속박물관(본관),N,0,09:00~18:00,광주광역시 북구청,4,0,062-410-6475,광주광역시 북구 용봉동 1004-4,5,개방화장실,5,126.8885327,0,광주광역시 북구 서하로 48-25(용봉동),0,0,35.18414468,0,,2018-07-09
광주광역시립민속박물관(옥외),N,0,09:00~18:00,광주광역시 북구청,3,0,062-410-6475,광주광역시 북구 용봉동 1004-4,3,개방화장실,4,126.8885327,0,광주광역시 북구 서하로 48-25(용봉동),0,0,35.18414468,0,,2018-07-09
광주광역시립민속박물관(매점),N,1,09:00~18:00,광주광역시 북구청,3,0,062-410-6475,광주광역시 북구 용봉동 1004-4,3,개방화장실,4,126.8885327,0,광주광역시 북구 서하로 48-25(용봉동),0,0,35.18414468,1,,2018-07-09
시립미술관(정문),N,0,09:00~18:00,광주광역시 북구청,4,0,062-410-6475,광주광역시 북구 운암동 165,4,개방화장실,4,126.8857365,0,광주광역시 북구 하서로 52(운암동),0,0,35.1832335,0,,2018-07-09
시립미술관(유희장),N,0,09:00~18:00,광주광역시 북구청,5,0,062-410-6475,광주광역시 북구 운암동 166,9,개방화장실,7,126.8857365,0,광주광역시 북구 하서로 52(운암동),0,0,35.1832335,0,,2018-07-09
시립미술관(3 1 탑),N,0,09:00~18:00,광주광역시 북구청,2,0,062-410-6475,광주광역시 북구 운암동 167,3,개방화장실,3,126.8857365,0,광주광역시 북구 하서로 52(운암동),0,0,35.1832335,0,,2018-07-09
시립미술관(운암제),N,0,09:00~18:00,광주광역시 북구청,4,0,062-410-6475,광주광역시 북구 운암동 168,3,개방화장실,5,126.8857365,0,광주광역시 북구 하서로 52(운암동),0,0,35.1832335,0,,2018-07-09
시립미술관(팔각정),N,0,09:00~18:00,광주광역시 북구청,5,0,062-410-6475,광주광역시 북구 운암동 169,5,개방화장실,7,126.8857365,0,광주광역시 북구 하서로 52(운암동),0,0,35.1832335,0,,2018-07-09
시립미술관(비엔날레중정),N,0,09:00~18:00,광주광역시 북구청,4,0,062-410-6475,광주광역시 북구 용봉동 149-2,5,개방화장실,6,126.9145288,0,광주광역시 북구 호동로15번길 60(용봉동),0,0,35.17776979,0,,2018-07-09
시립미술관(비엔날레주차장),N,0,09:00~18:00,광주광역시 북구청,5,0,062-410-6475,광주광역시 북구 매곡동 388-7,9,개방화장실,3,126.9145288,0,광주광역시 북구 호동로15번길 60(용봉동),0,0,35.17776979,0,,2018-07-09
상수도사업본부 북부사업소,N,0,09:00~18:00,광주광역시 북구청,2,0,062-410-6475,광주광역시 북구 용봉동 247-12,2,개방화장실,4,126.9089224,0,광주광역시 북구 용봉로 111(용봉동),0,0,35.17272171,0,,2018-07-09
광주도시철도공사,N,0,24시간,광주광역시 북구청,7,0,062-410-6475,광주광역시 북구 북동 290,9,개방화장실,5,126.9092499,0,광주광역시 북구 금남로 133(북동),0,0,35.1545529,0,,2018-07-09
각화도매시장 본관동,N,0,09:00~18:00,광주광역시 북구청,7,0,062-410-6475,광주광역시 북구 각화동 437-3,26,개방화장실,10,126.9336819,0,광주광역시 북구 동문대로 260(각화동),0,0,35.18501067,0,,2018-07-09
각화도매시장 정문,N,0,09:00~18:00,광주광역시 북구청,10,0,062-410-6475,광주광역시 북구 각화동 437-3,14,개방화장실,9,126.9336819,0,광주광역시 북구 동문대로 260(각화동),0,0,35.18501067,0,,2018-07-09
각화도매시장 중앙청과,N,0,09:00~18:00,광주광역시 북구청,4,0,062-410-6475,광주광역시 북구 각화동 437-3,5,개방화장실,4,126.9336819,0,광주광역시 북구 동문대로 260(각화동),0,0,35.18501067,0,,2018-07-09
각화도매시장 채소2경매장,N,0,09:00~18:00,광주광역시 북구청,4,0,062-410-6475,광주광역시 북구 각화동 437-3,4,개방화장실,3,126.9336819,0,광주광역시 북구 동문대로 260(각화동),0,0,35.18501067,0,,2018-07-09
각화도매시장 원협채소,N,0,09:00~18:00,광주광역시 북구청,4,0,062-410-6475,광주광역시 북구 각화동 437-3,4,개방화장실,4,126.9336819,0,광주광역시 북구 동문대로 260(각화동),0,0,35.18501067,0,,2018-07-09
각화도매시장 광주채소,N,0,09:00~18:00,광주광역시 북구청,3,0,062-410-6475,광주광역시 북구 각화동 437-3,5,개방화장실,4,126.9336819,0,광주광역시 북구 동문대로 260(각화동),0,0,35.18501067,0,,2018-07-09
보건환경연구원 본촌동청사,N,0,09:00~18:00,광주광역시 북구청,2,0,062-410-6475,광주광역시 북구 본촌동 379-2,3,개방화장실,3,126.882199,0,광주광역시 북구 본촌마을길 25-1(본촌동),0,0,35.222667,0,,2018-07-09
문예회관 대극장,N,0,09:00~18:00,광주광역시 북구청,10,0,062-410-6475,광주광역시 북구 운암동 328-16,27,개방화장실,12,126.881692,0,광주광역시 북구 북문대로 60(운암동),0,0,35.177826,0,,2018-07-09
문예회관 소극장,N,0,09:00~18:00,광주광역시 북구청,5,0,062-410-6475,광주광역시 북구 운암동 328-16,8,개방화장실,10,126.881692,0,광주광역시 북구 북문대로 60(운암동),0,0,35.177826,0,,2018-07-09
문예회관 국악당,N,0,09:00~18:00,광주광역시 북구청,2,0,062-410-6475,광주광역시 북구 운암동 328-16,4,개방화장실,3,126.881692,0,광주광역시 북구 북문대로 60(운암동),0,0,35.177826,0,,2018-07-09
문예회관 별관(구미술관),N,0,09:00~18:00,광주광역시 북구청,5,0,062-410-6475,광주광역시 북구 운암동 328-16,5,개방화장실,6,126.881692,0,광주광역시 북구 북문대로 60(운암동),0,0,35.177826,0,,2018-07-09
북구청 교통지도과,N,0,09:00~18:00,광주광역시 북구청,4,0,062-410-6475,광주광역시 북구 중흥동 358-11,2,개방화장실,2,126.911644,0,광주광역시 북구 용봉로138번길 11(중흥동),0,0,35.172972,0,,2018-07-09
국립5.18민주묘지(역사의문),N,0,09:00~18:00,광주광역시 북구청,3,0,062-410-6475,광주광역시 북구 운정동 563,3,개방화장실,5,126.940967,0,광주광역시 북구 민주로 200(운정동),0,0,35.234669,0,,2018-07-09
국립5.18민주묘지(야외),N,0,09:00~18:00,광주광역시 북구청,6,0,062-410-6475,광주광역시 북구 운정동 563,8,개방화장실,6,126.940967,0,광주광역시 북구 민주로 200(운정동),0,0,35.234669,0,,2018-07-09
국립5.18민주묘지(관리동),N,0,09:00~18:00,광주광역시 북구청,6,0,062-410-6475,광주광역시 북구 운정동 563,12,개방화장실,9,126.940967,0,광주광역시 북구 민주로 200(운정동),0,0,35.234669,0,,2018-07-09
광주지방기상청,N,0,09:00~18:00,광주광역시 북구청,8,0,062-410-6475,광주광역시 북구 운암동 32-23,3,개방화장실,7,126.891297,0,광주광역시 북구 서암대로 71(운암동),0,0,35.173621,0,,2018-07-09
광주동림동우체국,N,0,09:00~18:00,광주광역시 북구청,2,0,062-410-6475,광주광역시 북구 동림동 1156-2,2,개방화장실,2,126.866417,0,광주광역시 북구 북문대로 238(동림동),0,0,35.187118,0,,2018-07-09
광주본촌동우체국,N,0,09:00~18:00,광주광역시 북구청,1,0,062-410-6475,광주광역시 북구 본촌동 647-3,1,개방화장실,1,126.879987,0,광주광역시 북구 본촌마을길 95(본촌동),0,0,35.219751,0,,2018-07-09
광주문흥동우체국,N,0,09:00~18:00,광주광역시 북구청,1,0,062-410-6475,광주광역시 북구 문흥동 996-8,1,개방화장실,1,126.921352,0,광주광역시 북구 대천로 140-1(문흥동),0,0,35.186825,0,,2018-07-09
광주매곡동우체국,N,0,09:00~18:00,광주광역시 북구청,2,0,062-410-6475,광주광역시 북구 매곡동 373-14,1,개방화장실,1,126.890126,0,광주광역시 북구 서하로 88(매곡동),0,0,35.187149,0,,2018-07-09
광주운암동우체국,N,0,09:00~18:00,광주광역시 북구청,1,0,062-410-6475,광주광역시 북구 운암동 366-4,1,개방화장실,1,126.874266,0,광주광역시 북구 서강로54번길 30(운암동),0,0,35.175916,0,,2018-07-09
광주오치동우체국,N,0,09:00~18:00,광주광역시 북구청,1,0,062-410-6475,광주광역시 북구 오치동 956-9,1,개방화장실,1,126.906934,0,광주광역시 북구 서하로 241(오치동),0,0,35.187343,0,,2018-07-09
광주우산동우체국,N,0,09:00~18:00,광주광역시 북구청,1,0,062-410-6475,광주광역시 북구 우산동 632-1,1,개방화장실,1,126.920467,0,광주광역시 북구 중문로 70(우산동),0,0,35.178554,0,,2018-07-09
광주교육대학교 정문 경비실,N,0,09:00~18:00,광주광역시 북구청,1,0,062-410-6475,광주광역시 북구 풍향동 1-3,1,개방화장실,1,126.9264048,0,광주광역시 북구 필문대로 55(풍향동),0,0,35.1650513,0,,2018-07-09
홈플러스동광주점,N,1,10:00~24:00,광주광역시 북구청,9,0,062-410-6475,광주광역시 북구 두암동 575-1,19,개방화장실,15,126.930625,0,광주광역시 북구 동문대로 200(두암동),0,0,35.180152,1,,2018-07-09
NC백화점,N,1,10:30~21:00,광주광역시 북구청,17,0,062-410-6475,광주광역시 북구 신안동 6-1,0,개방화장실,23,126.907141,0,광주광역시 북구 경열로 249(신안동),0,7,35.161618,1,,2018-07-09
두암주공4단지관리사무소,N,0,09:00~18:00,광주광역시 북구청,4,0,062-410-6475,광주광역시 북구 두암동 969-6,8,개방화장실,6,126.937988,0,광주광역시 북구 삼정로 10(두암동),0,0,35.162881,0,,2018-07-09
롯데슈퍼 문흥점,N,0,10:00~23:00,광주광역시 북구청,6,0,062-410-6475,광주광역시 북구 문흥동 996-5,9,개방화장실,9,126.9220338,0,광주광역시 북구 대천로 140-7(문흥동),0,0,35.18661175,0,,2018-07-09
북광주농업협동조합,N,0,09:00~18:00,광주광역시 북구청,1,0,062-410-6475,광주광역시 북구 본촌동 772-1,1,개방화장실,1,126.8797404,0,광주광역시 북구 하서로 522(본촌동),0,0,35.22011826,0,,2018-07-09
중흥신용협동조합,N,0,09:00~18:00,광주광역시 북구청,0,0,062-410-6475,광주광역시 북구 중흥동 356-46,1,개방화장실,1,126.911164,0,광주광역시 북구 우치로 35(중흥동),0,0,35.17073318,0,,2018-07-09
말바우만남의광장,N,0,24시간,광주광역시 북구청,2,0,062-410-6475,광주광역시 북구 우산동 190-3,6,개방화장실,3,126.922982,0,광주광역시 북구 동문대로97번길 23(우산동),0,0,35.1728855,0,,2018-07-09
말바우주차장(제1주차장),N,1,24시간,광주광역시 북구청,1,0,062-410-6475,광주광역시 북구 우산동 190-1,2,개방화장실,4,126.921389,0,광주광역시 북구 서방로81번길 27(우산동),0,0,35.173112,1,,2018-07-09
운암시장,N,0,24시간,광주광역시 북구청,3,0,062-410-6475,광주광역시 북구 운암동 94-7,3,개방화장실,4,126.8820048,0,광주광역시 북구 대자로 87(운암동),0,0,35.17337269,0,,2018-07-09
천주교오치동성당,N,0,24시간,광주광역시 북구청,2,0,062-410-6475,광주광역시 북구 오치동 668-90,2,개방화장실,2,126.9029443,0,광주광역시 북구 우치로311번길 12(오치동),0,0,35.19288941,0,,2018-07-09
크린 셀프 세차장,N,0,24시간,광주광역시 북구청,1,0,062-410-6475,광주광역시 북구 오치동 722,2,개방화장실,1,126.8992603,0,광주광역시 북구 설죽로 364(오치동),0,0,35.19213287,0,,2018-07-09
쌍용자동차 서비스,N,0,08:00~19:00,광주광역시 북구청,1,0,062-410-6475,광주광역시 북구 용봉동 1337-5,1,개방화장실,1,126.8982917,0,광주광역시 북구 설죽로 265(용봉동),0,0,35.18339252,0,,2018-07-09
㈜태일전기,N,0,09:00~20:00,광주광역시 북구청,1,0,062-410-6475,광주광역시 북구 동림동 277-1,1,개방화장실,1,126.8643536,0,광주광역시 북구 유림로 146(동림동),0,0,35.17561121,0,,2018-07-09
기아오토큐 풍향점,N,0,08:00~19:00,광주광역시 북구청,1,0,062-410-6475,광주광역시 북구 풍향동 579-10,1,개방화장실,1,126.9304083,0,광주광역시 북구 필문대로 105(풍향동),0,0,35.16138245,0,,2018-07-09
동부시장(1층),N,1,24시간,광주광역시 북구청,2,0,062-410-6475,광주광역시 북구 중흥동 272-6,2,개방화장실,2,126.9076079,0,광주광역시 북구 중문로9번길 39(중흥동),0,0,35.1738798,0,,2018-07-09
광주일곡병원,N,1,06:00~23:00,광주광역시 북구청,2,0,062-410-6475,광주광역시 북구 일곡동 840-3,2,개방화장실,2,126.897616,0,광주광역시 북구 양일로 309(일곡동),0,0,35.202828,0,,2018-07-09
광주희망병원,N,1,24시간,광주광역시 북구청,3,0,062-410-6475,광주광역시 북구 용두동 276-4,3,개방화장실,3,126.874676,0,광주광역시 북구 하서로 429(용두동),0,0,35.213349,1,,2018-07-09
광주탑정형외과,N,1,06:00~20:00,광주광역시 북구청,1,0,062-410-6475,광주광역시 북구 풍향동 579-69,2,개방화장실,2,126.929797,0,광주광역시 북구 필문대로 95(풍향동),0,0,35.162113,0,,2018-07-09
우암병원,N,1,06:00~20:00,광주광역시 북구청,2,0,062-410-6475,광주광역시 북구 각화동 451-1,2,개방화장실,2,126.9330201,0,광주광역시 북구 동문대로248번길 10(각화동),0,0,35.18340228,0,,2018-07-09
첨단우암병원,N,1,08:00~21:00,광주광역시 북구청,3,0,062-410-6475,광주광역시 북구 오룡동 1115-6,3,개방화장실,3,126.8532723,0,광주광역시 북구 앰코로 6(오룡동),0,0,35.21854597,0,,2018-07-09
대한요양병원,N,0,09:00~18:00,광주광역시 북구청,2,0,062-410-6475,광주광역시 북구 신안동 120-9,2,개방화장실,2,126.904612,0,광주광역시 북구 중흥로91번길 2(신안동),0,0,35.16386345,0,,2018-07-09
효창요양병원,N,0,08:00~18:00,광주광역시 북구청,2,0,062-410-6475,광주광역시 북구 신안동 213-27,3,개방화장실,4,126.9047555,0,광주광역시 북구 서암대로 187(신안동),0,0,35.16883906,0,,2018-07-09
광주굿모닝병원,N,1,09:00~18:00,광주광역시 북구청,2,0,062-410-6475,광주광역시 북구 운암동 1081-1,2,개방화장실,2,126.8713473,0,광주광역시 북구 북문대로 182(운암동),0,0,35.18485594,1,,2018-07-09
운암한국병원,N,0,24시간,광주광역시 북구청,5,0,062-410-6475,광주광역시 북구 운암동 1078-11,4,개방화장실,2,126.8696299,0,광주광역시 북구 북문대로 191(운암동),0,0,35.18504519,0,,2018-07-09
운암벽산상가(2단지),N,0,06:00~18:00,광주광역시 북구청,6,0,062-410-6475,광주광역시 북구 운암동 68,4,개방화장실,6,126.876356,0,광주광역시 북구 서강로54번길 50(운암동),0,0,35.17463256,0,,2018-07-09
기산빌딩,N,0,08:00~19:00,광주광역시 북구청,1,0,062-410-6475,광주광역시 북구 일곡동 847-2,2,개방화장실,2,126.8880337,0,광주광역시 북구 일곡마을로 41(일곡동),0,0,35.2051179,0,,2018-07-09
커피루덴스 운암점,N,0,09:00~24:00,광주광역시 북구청,1,0,062-410-6475,광주광역시 북구 운암동 978-3,1,개방화장실,1,126.8703196,0,광주광역시 북구 서강로 77-1(운암동),0,0,35.17933494,0,,2018-07-09
소딜리셔스,N,0,24시간,광주광역시 북구청,1,0,062-410-6475,광주광역시 북구 용봉동 161-43,1,개방화장실,0,126.9040791,0,광주광역시 북구 호동로 3-6(용봉동),0,0,35.16532684,0,,2018-07-09
문화동 시외버스정류장,N,0,05:30~23:00,광주광역시 북구청,1,0,062-410-6475,광주광역시 북구 두암동 859-9,1,개방화장실,2,126.925953,0,광주광역시 북구 동문대로 120(두암동),0,0,35.1735573,0,,2018-07-09
원효사,N,0,24시간,광주광역시 북구청,3,0,062-410-6475,광주광역시 북구 금곡동 846,4,개방화장실,3,126.985683,0,광주광역시 북구 무등로 1514-35(금곡동),0,0,35.148564,0,,2018-07-09
예은교회,N,0,09:00~18:00,광주광역시 북구청,1,0,062-410-6475,광주광역시 북구 두암동 54-5,2,개방화장실,2,126.9363311,0,광주광역시 북구 군왕로 168번길 50(두암동),0,0,35.175519,0,,2018-07-09
쉐보레동광주서비스센터,N,0,08:30~18:00,광주광역시 북구청,2,0,062-410-6475,광주광역시 북구 문흥동 81-11,2,개방화장실,2,126.930137,0,광주광역시 북구 오문로 234(문흥동),0,0,35.189432,0,,2018-07-09
대주아파트 상가동,N,0,07:00~24:00,광주광역시 북구청,1,0,062-410-6475,광주광역시 북구 문흥동 920,2,개방화장실,3,126.925365,0,광주광역시 북구 평교로 45(문흥동),0,0,35.181004,0,,2018-07-09
챔피언주유소,N,0,24시간,광주광역시 북구청,1,0,062-410-6475,광주광역시 북구 신안동 134-4,0,개방화장실,1,126.9031875,0,광주광역시 북구 무등로 180(신안동),0,0,35.1655749,0,,2018-07-09
㈜대창석유직영운암주유소,N,0,24시간,광주광역시 북구청,2,0,062-410-6475,광주광역시 북구 운암동 486-11,1,개방화장실,2,126.882055,0,광주광역시 북구 북문대로 34(운암동),0,0,35.17511777,0,,2018-07-09
㈜신흥주유소,N,0,24시간,광주광역시 북구청,2,0,062-410-6475,광주광역시 북구 중흥동 599-116,1,개방화장실,2,126.9136624,0,광주광역시 북구 서암대로 273(중흥동),0,0,35.16651302,0,,2018-07-09
SK광주주유소,N,0,24시간,광주광역시 북구청,1,0,062-410-6475,광주광역시 북구 중흥동 695-5,1,개방화장실,1,126.9109875,0,광주광역시 북구 무등로 254(중흥동),0,0,35.16341402,0,,2018-07-09
㈜안국에너지우신주유소,N,0,24시간,광주광역시 북구청,2,0,062-410-6475,광주광역시 북구 각화동 495-8,2,개방화장실,2,126.9308522,0,광주광역시 북구 동문대로 218(각화동),0,0,35.18155148,0,,2018-07-09
혜성주유소,N,0,24시간,광주광역시 북구청,1,0,062-410-6475,광주광역시 북구 임동 101-190,1,개방화장실,1,126.8948954,0,광주광역시 북구 천변우로 161(임동),0,0,35.16081603,0,,2018-07-09
양산주유소,N,0,24시간,광주광역시 북구청,1,0,062-410-6475,광주광역시 북구 양산동 610-17,1,개방화장실,1,126.8758945,0,광주광역시 북구 하서로 255(양산동),0,0,35.19808896,0,,2018-07-09
혜원주유소,N,0,24시간,광주광역시 북구청,1,0,062-410-6475,광주광역시 북구 용봉동 33-1,0,개방화장실,1,126.9102951,0,광주광역시 북구 우치로 170(용봉동),0,0,35.18223385,0,,2018-07-09
화물터미널주유소,N,0,24시간,광주광역시 북구청,2,0,062-410-6475,광주광역시 북구 각화동 380-14,2,개방화장실,2,126.9340005,0,광주광역시 북구 동문대로 288(각화동),0,0,35.18750219,0,,2018-07-09
현대오일뱅크㈜직영대림주유소,N,0,24시간,광주광역시 북구청,2,0,062-410-6475,광주광역시 북구 양산동 267-2,2,개방화장실,2,126.874231,0,광주광역시 북구 하서로 380(양산동),0,0,35.20866551,0,,2018-07-09
일곡우리주유소,N,0,24시간,광주광역시 북구청,1,0,062-410-6475,광주광역시 북구 일곡동 43,1,개방화장실,1,126.9027391,0,광주광역시 북구 우치로 595(일곡동),0,0,35.21760433,0,,2018-07-09
두암주유소,N,0,24시간,광주광역시 북구청,2,0,062-410-6475,광주광역시 북구 두암동 866-3,2,개방화장실,2,126.9319243,0,광주광역시 북구 군왕로 103(두암동),0,0,35.17029594,0,,2018-07-09
(주)대원에너지 차나라주유소,N,0,24시간,광주광역시 북구청,2,0,062-410-6475,광주광역시 북구 두암동 840-5,2,개방화장실,2,126.9272395,0,광주광역시 북구 동문대로 138(두암동),0,0,35.17498749,0,,2018-07-09
무지개주유소,N,0,24시간,광주광역시 북구청,1,0,062-410-6475,광주광역시 북구 오치동 956-10,1,개방화장실,1,126.9065829,0,광주광역시 북구 서하로 237(오치동),0,0,35.18729666,0,,2018-07-09
지산주유소,N,0,24시간,광주광역시 북구청,1,0,062-410-6475,광주광역시 북구 본촌동 672,0,개방화장실,2,126.8780749,0,광주광역시 북구 양산택지로 157(본촌동),0,0,35.21739452,0,,2018-07-09
오치주유소,N,0,24시간,광주광역시 북구청,0,0,062-410-6475,광주광역시 북구 오치동 766-1,2,개방화장실,3,126.899345,0,광주광역시 북구 설죽로 316-5(오치동),0,0,35.18754324,0,,2018-07-09
북성주유소,N,0,24시간,광주광역시 북구청,1,0,062-410-6475,광주광역시 북구 임동 84-3,0,개방화장실,2,126.9014655,0,광주광역시 북구 금남로 49(임동),0,0,35.1590008,0,,2018-07-09
세본주유소,N,0,24시간,광주광역시 북구청,1,0,062-410-6475,광주광역시 북구 용봉동 1149-5,0,개방화장실,1,126.9003976,0,광주광역시 북구 용주로 21(용봉동),0,0,35.181487,0,,2018-07-09
예향주유소,N,0,24시간,광주광역시 북구청,1,0,062-410-6475,광주광역시 북구 운암동 180-1,1,개방화장실,2,126.8804835,0,광주광역시 북구 하서로 47(운암동),0,0,35.18076954,0,,2018-07-09
대경주유소,N,0,24시간,광주광역시 북구청,1,0,062-410-6475,광주광역시 북구 동림동 52-3,0,개방화장실,1,126.8641542,0,광주광역시 북구 북문대로 257(동림동),0,0,35.18724208,0,,2018-07-09
서림주유소,N,0,24시간,광주광역시 북구청,1,0,062-410-6475,광주광역시 북구 신안동 252-9,1,개방화장실,2,126.8976623,0,광주광역시 북구 무등로 126(신안동),0,0,35.1670558,0,,2018-07-09
행복드림셀프주유소,N,0,24시간,광주광역시 북구청,2,0,062-410-6475,광주광역시 북구 신안동 5-2,2,개방화장실,2,126.9075554,0,광주광역시 북구 경열로 257(신안동),0,0,35.16236587,0,,2018-07-09
경기장주유소,N,0,24시간,광주광역시 북구청,1,0,062-410-6475,광주광역시 북구 임동 159-4,2,개방화장실,2,126.8924048,0,광주광역시 북구 무등로 76(임동),0,0,35.16846818,0,,2018-07-09
주식회사 에코주유소,N,0,24시간,광주광역시 북구청,2,0,062-410-6475,광주광역시 북구 신안동 123-4,2,개방화장실,2,126.9072579,0,광주광역시 북구 무등로 213(신안동),0,0,35.1652536,0,,2018-07-09
동운주유소,N,0,24시간,광주광역시 북구청,2,0,062-410-6475,광주광역시 북구 신안동 124-8,1,개방화장실,2,126.9052246,0,광주광역시 북구 무등로 195(신안동),0,0,35.16564141,0,,2018-07-09
히어로주유소,N,0,24시간,광주광역시 북구청,2,0,062-410-6475,광주광역시 북구 신안동 232-14,1,개방화장실,2,126.8981636,0,광주광역시 북구 서암대로 128(신안동),0,0,35.16995138,0,,2018-07-09
자모주유소,N,0,24시간,광주광역시 북구청,2,0,062-410-6475,광주광역시 북구 중흥동 349-12,2,개방화장실,1,126.9101742,0,광주광역시 북구 우치로 7(중흥동),0,0,35.16838531,0,,2018-07-09
전대주유소,N,0,24시간,광주광역시 북구청,1,0,062-410-6475,광주광역시 북구 신안동 130-1,1,개방화장실,2,126.8933512,0,광주광역시 북구 무등로 165(신안동),0,0,35.1664313,0,,2018-07-09
대성주유소,N,0,24시간,광주광역시 북구청,2,0,062-410-6475,광주광역시 북구 오치동 989-9,2,개방화장실,2,126.9079169,0,광주광역시 북구 천지인로 85(오치동),0,0,35.18440613,0,,2018-07-09
기분좋은 self주유소,N,0,24시간,광주광역시 북구청,1,0,062-410-6475,광주광역시 북구 오치동 988-10,1,개방화장실,2,126.908626,0,광주광역시 북구 천지인로 91(오치동),0,0,35.184331,0,,2018-07-09
㈜알리바바주유소,N,0,24시간,광주광역시 북구청,2,0,062-410-6475,광주광역시 북구 우산동 555-5,2,개방화장실,2,126.919018,0,광주광역시 북구 서암대로 323(우산동),0,0,35.165173,0,,2018-07-09
금하주유소,N,0,24시간,광주광역시 북구청,1,0,062-410-6475,광주광역시 북구 운암동 1396,1,개방화장실,2,126.8779898,0,광주광역시 북구 하남대로 777(운암동),0,0,35.17152995,0,,2018-07-09
여물주유소,N,0,24시간,광주광역시 북구청,2,0,062-410-6475,광주광역시 북구 임동 83-1,2,개방화장실,2,126.8999423,0,광주광역시 북구 금남로 36(임동),0,0,35.15885173,0,,2018-07-09
문화주유소,N,0,24시간,광주광역시 북구청,2,0,062-410-6475,광주광역시 북구 문흥동 96,2,개방화장실,2,126.933635,0,광주광역시 북구 동문대로 299(문흥동),0,0,35.18871701,0,,2018-07-09
동문주유소,N,0,24시간,광주광역시 북구청,2,0,062-410-6475,광주광역시 북구 두암동 560-22,2,개방화장실,2,126.9290962,0,광주광역시 북구 서하로 468(두암동),0,0,35.18086904,0,,2018-07-09
그린주유소,N,0,24시간,광주광역시 북구청,1,0,062-410-6475,광주광역시 북구 양산동 633-12,1,개방화장실,2,126.8765356,0,광주광역시 북구 하서로 189(양산동),0,0,35.19236421,0,,2018-07-09
패밀리주유소,N,0,24시간,광주광역시 북구청,1,0,062-410-6475,광주광역시 북구 생용동 72-1,2,개방화장실,2,126.9023314,0,광주광역시 북구 생용동 72-1(생용동),0,0,35.22418746,0,,2018-07-09
망월주유소,N,0,24시간,광주광역시 북구청,2,0,062-410-6475,광주광역시 북구 망월동 1172-4,2,개방화장실,1,126.9457457,0,광주광역시 북구 동문대로 603(망월동),0,0,35.21150566,0,,2018-07-09
도동재주유소,N,0,24시간,광주광역시 북구청,2,0,062-410-6475,광주광역시 북구 문흥동 3-6,2,개방화장실,3,126.9353183,0,광주광역시 북구 동문대로 410(문흥동),0,0,35.19822902,0,,2018-07-09
㈜일곡석유,N,0,24시간,광주광역시 북구청,1,0,062-410-6475,광주광역시 북구 장등동 876,2,개방화장실,2,126.9023241,0,광주광역시 북구 우치로422번길 22(삼각동),0,0,35.20459929,0,,2018-07-09
장운주유소,N,0,24시간,광주광역시 북구청,2,0,062-410-6475,광주광역시 북구 두암동 589-5,1,개방화장실,2,126.9355661,0,광주광역시 북구 동문대로 452(장등동),0,0,35.20152089,0,,2018-07-09
으뜸주유소,N,0,24시간,광주광역시 북구청,2,0,062-410-6475,광주광역시 북구 두암동 589-5,2,개방화장실,2,126.9337717,0,광주광역시 북구 군왕로 177(두암동),0,0,35.17719055,0,,2018-07-09
보람주유소,N,0,24시간,광주광역시 북구청,2,0,062-410-6475,광주광역시 북구 신안동 473-1,1,개방화장실,2,126.899501,0,광주광역시 북구 용봉로 24(신안동),0,0,35.17140909,0,,2018-07-09
코끼리주유소,N,0,24시간,광주광역시 북구청,1,0,062-410-6475,광주광역시 북구 매곡동 367-3,0,개방화장실,1,126.8887782,0,광주광역시 북구 서하로 77(매곡동),0,0,35.18764937,0,,2018-07-09
매곡주유소,N,0,24시간,광주광역시 북구청,2,0,062-410-6475,광주광역시 북구 매곡동 373-6,2,개방화장실,2,126.889855,0,광주광역시 북구 서하로 86(매곡동),0,0,35.18707349,0,,2018-07-09
SK넥트웍스㈜문흥주유소,N,0,24시간,광주광역시 북구청,1,0,062-410-6475,광주광역시 북구 오치동 965-15,2,개방화장실,2,126.9116163,0,광주광역시 북구 서하로 286(오치동),0,0,35.1868786,0,,2018-07-09
주공주유소,N,0,24시간,광주광역시 북구청,2,0,062-410-6475,광주광역시 북구 운암동 1081-5,0,개방화장실,2,126.870789,0,광주광역시 북구 북문대로 190(운암동),0,0,35.18521588,0,,2018-07-09
용봉천주유소,N,0,24시간,광주광역시 북구청,2,0,062-410-6475,광주광역시 북구 용봉동 700-34,1,개방화장실,2,126.8964696,0,광주광역시 북구 설죽로 183(용봉동),0,0,35.17615128,0,,2018-07-09
성실주유소,N,0,24시간,광주광역시 북구청,2,0,062-410-6475,광주광역시 북구 삼각동 753-40,2,개방화장실,2,126.9036827,0,광주광역시 북구 우치로 347(삼각동),0,0,35.1954884,0,,2018-07-09
SK네트웍스㈜OK주유소,N,0,24시간,광주광역시 북구청,1,0,062-410-6475,광주광역시 북구 동림동 885-12,1,개방화장실,2,126.8683025,0,광주광역시 북구 하남대로 691(동림동),0,0,35.17213273,0,,2018-07-09
클릭주유소,N,0,24시간,광주광역시 북구청,2,0,062-410-6475,광주광역시 북구 운암동 1224,2,개방화장실,2,126.8740767,0,광주광역시 북구 하남대로 743(운암동),0,0,35.17204513,0,,2018-07-09
(유)플러스주유소,N,0,24시간,광주광역시 북구청,1,0,062-410-6475,광주광역시 북구 삼각동 561-2,1,개방화장실,1,126.9002486,0,광주광역시 북구 설죽로 408(삼각동),0,0,35.19559128,0,,2018-07-09
무등주유소,N,0,24시간,광주광역시 북구청,2,0,062-410-6475,광주광역시 북구 신안동 257-2,2,개방화장실,2,126.8992259,0,광주광역시 북구 무등로 142(신안동),0,0,35.16660643,0,,2018-07-09
(주)반디석유,N,0,24시간,광주광역시 북구청,2,0,062-410-6475,광주광역시 북구 운암동 1462,2,개방화장실,2,126.8822801,0,광주광역시 북구 하남대로 819(운암동),0,0,35.17126739,0,,2018-07-09
일신주유소,N,0,24시간,광주광역시 북구청,1,0,062-410-6475,광주광역시 북구 일곡동 51-9,1,개방화장실,2,126.8999216,0,광주광역시 북구 설죽로 645(일곡동),0,0,35.21509267,0,,2018-07-09
스피드주유소,N,0,24시간,광주광역시 북구청,2,0,062-410-6475,광주광역시 북구 용봉동 1231-8,2,개방화장실,2,126.898327,0,광주광역시 북구 설죽로 226(용봉동),0,0,35.17976189,0,,2018-07-09
일곡제일주유소,N,0,24시간,광주광역시 북구청,2,0,062-410-6475,광주광역시 북구 삼각동 569,2,개방화장실,2,126.899676,0,광주광역시 북구 설죽로 421(삼각동),0,0,35.19690678,0,,2018-07-09
신용주유소,N,0,24시간,광주광역시 북구청,2,0,062-410-6475,광주광역시 북구 신용동 476-25,1,개방화장실,2,126.8631717,0,광주광역시 북구 임방울대로 961(신용동),0,0,35.21533794,0,,2018-07-09
승우에너지,N,0,24시간,광주광역시 북구청,2,0,062-410-6475,광주광역시 북구 문흥동 97-1,2,개방화장실,2,126.9334294,0,광주광역시 북구 동문대로 289(문흥동),0,0,35.18762446,0,,2018-07-09
㈜한일주유소,N,0,24시간,광주광역시 북구청,2,0,062-410-6475,광주광역시 북구 양산동 620-82,1,개방화장실,2,126.8765222,0,광주광역시 북구 하서로 225(양산동),0,0,35.19539635,0,,2018-07-09
㈜대창석유직영미래주유소,N,0,24시간,광주광역시 북구청,2,0,062-410-6475,광주광역시 북구 신용동 487-9,1,개방화장실,2,126.8649253,0,광주광역시 북구 임방울대로 979(신용동),0,0,35.21491807,0,,2018-07-09
북광주IC주유소,N,0,24시간,광주광역시 북구청,2,0,062-410-6475,광주광역시 북구 지야동 798-6,0,개방화장실,2,126.8881277,0,광주광역시 북구 하서로 678(지야동),0,0,35.2328822,0,,2018-07-09
동부에너지주유소,N,0,24시간,광주광역시 북구청,2,0,062-410-6475,광주광역시 북구 본촌동 764-2,2,개방화장실,2,126.8818733,0,광주광역시 북구 하서로 571(본촌동),0,0,35.22479296,0,,2018-07-09
신용무들SK셀프주유소,N,0,24시간,광주광역시 북구청,2,0,062-410-6475,광주광역시 북구 신용동 476-21,1,개방화장실,2,126.8622621,0,광주광역시 북구 임방울대로 953(신용동),0,0,35.2154631,0,,2018-07-09
용전주유소,N,0,24시간,광주광역시 북구청,2,0,062-410-6475,광주광역시 북구 용전동 1225-8,2,개방화장실,2,126.8942996,0,광주광역시 북구 우치로 809(용전동),0,0,35.23440922,0,,2018-07-09
고려주유소,N,0,24시간,광주광역시 북구청,2,0,062-410-6475,광주광역시 북구 삼각동 753-42,2,개방화장실,2,126.900197,0,광주광역시 북구 설죽로 398(삼각동),0,0,35.19472233,0,,2018-07-09
첨단제일주유소,N,0,24시간,광주광역시 북구청,2,0,062-410-6475,광주광역시 북구 대촌동 709-1,2,개방화장실,2,126.8556787,0,광주광역시 북구 삼소로 191(대촌동),0,0,35.23657223,0,,2018-07-09
본촌주유소,N,0,24시간,광주광역시 북구청,1,0,062-410-6475,광주광역시 북구 본촌동 773-1,1,개방화장실,1,126.880163,0,광주광역시 북구 하서로 530(본촌동),0,0,35.220912,0,,2018-07-09
용전IC주유소,N,0,24시간,광주광역시 북구청,1,0,062-410-6475,광주광역시 북구 용전동 1223-11,1,개방화장실,2,126.8934341,0,광주광역시 북구 우치로 842(용전동),0,0,35.2376461,0,,2018-07-09
첨단북광주IC주유소,N,0,24시간,광주광역시 북구청,2,0,062-410-6475,광주광역시 북구 월출동 742-2,2,개방화장실,2,126.8686978,0,광주광역시 북구 삼소로 318(월출동),0,0,35.24025373,0,,2018-07-09
천보주유소,N,0,24시간,광주광역시 북구청,1,0,062-410-6475,광주광역시 북구 용전동 1225-28,0,개방화장실,1,126.8944746,0,광주광역시 북구 우치로 812(용전동),0,0,35.23498984,0,,2018-07-09
테크노파크주유소,N,0,24시간,광주광역시 북구청,2,0,062-410-6475,광주광역시 북구 월출동 749,2,개방화장실,2,126.8671637,0,광주광역시 북구 삼소로 307(월출동),0,0,35.24049001,0,,2018-07-09
박물관주유소,N,0,24시간,광주광역시 북구청,2,0,062-410-6475,광주광역시 북구 양산동 620-43,2,개방화장실,2,126.8766642,0,광주광역시 북구 하서로 211(양산동),0,0,35.1944627,0,,2018-07-09
북광주IC주유소,N,0,24시간,광주광역시 북구청,2,0,062-410-6475,광주광역시 북구 월출동 545-4,2,개방화장실,2,126.8697342,0,광주광역시 북구 삼소로 330(월출동),0,0,35.24069831,0,,2018-07-09
SK용두셀프주유소,N,0,24시간,광주광역시 북구청,2,0,062-410-6475,광주광역시 북구 용두동 1043-1,2,개방화장실,2,126.868422,0,광주광역시 북구 빛고을대로 657(용두동),0,0,35.22054635,0,,2018-07-09
용두우리주유소,N,0,24시간,광주광역시 북구청,2,0,062-410-6475,광주광역시 북구 용두동 1043-16,2,개방화장실,2,126.869366,0,광주광역시 북구 빛고을대로 652(용두동),0,0,35.219528,0,,2018-07-09
첨단용두주유소,N,0,24시간,광주광역시 북구청,2,0,062-410-6475,광주광역시 북구 용두동 1014-20,2,개방화장실,2,126.8688165,0,광주광역시 북구 빛고을대로 663(용두동),0,0,35.221772,0,,2018-07-09
덕양에너지(유)광주주유소,N,0,24시간,광주광역시 북구청,2,0,062-410-6475,광주광역시 북구 지야동 770-13,2,개방화장실,2,126.875843,0,광주광역시 북구 빛고을대로 825(지야동),0,0,35.234694,0,,2018-07-09
(주)도시산업신안동영업소,N,0,24시간,광주광역시 북구청,2,0,062-410-6475,광주광역시 북구 신안동 501-1,0,개방화장실,2,126.8992426,0,광주광역시 북구 무등로137번길 8(신안동),0,0,35.16730229,0,,2018-07-09
동화가스㈜,N,0,24시간,광주광역시 북구청,1,0,062-410-6475,광주광역시 북구 각화동 208-1,1,개방화장실,1,126.9352923,0,광주광역시 북구 각화대로 39(각화동),0,0,35.18112489,0,,2018-07-09
대성가스㈜,N,0,24시간,광주광역시 북구청,2,0,062-410-6475,광주광역시 북구 양산동 409-9,1,개방화장실,2,126.8783495,0,광주광역시 북구 하서로176번길 18(양산동),0,0,35.19239489,0,,2018-07-09
(주)대창석유직영국일충전소,N,0,24시간,광주광역시 북구청,2,0,062-410-6475,광주광역시 북구 두암동 352-1,2,개방화장실,4,126.934026,0,광주광역시 북구 탁영로 11(두암동),0,0,35.16681065,0,,2018-07-09
반디가스앤오일㈜,N,0,24시간,광주광역시 북구청,2,0,062-410-6475,광주광역시 북구 운암동 411-2,1,개방화장실,2,126.8827491,0,광주광역시 북구 운신남길 146(운암동),0,0,35.17184111,0,,2018-07-09
㈜바로OK,N,0,24시간,광주광역시 북구청,2,0,062-410-6475,광주광역시 북구 운암동 1351,1,개방화장실,3,126.8759831,0,광주광역시 북구 하남대로 763(운암동),0,0,35.17157118,0,,2018-07-09
광주개인택시조합LPG충전소,N,0,24시간,광주광역시 북구청,1,0,062-410-6475,광주광역시 북구 본촌동 451,0,개방화장실,1,126.8828355,0,광주광역시 북구 하서로 576(본촌동),0,0,35.22480832,0,,2018-07-09
반디이원충전소,N,0,24시간,광주광역시 북구청,2,0,062-410-6475,광주광역시 북구 일곡동 44-2,1,개방화장실,2,126.9022879,0,광주광역시 북구 우치로 585(일곡동),0,0,35.21648629,0,,2018-07-09
동광주LPG충전소,N,0,24시간,광주광역시 북구청,2,0,062-410-6475,광주광역시 북구 망월동 1089-1,2,개방화장실,3,126.9433799,0,광주광역시 북구 동문대로 560(망월동),0,0,35.2084544,0,,2018-07-09
미래LPG충전소,N,0,24시간,광주광역시 북구청,2,0,062-410-6475,광주광역시 북구 신용동 487-12,2,개방화장실,2,126.8654872,0,광주광역시 북구 임방울대로 983(신용동),0,0,35.2146729,0,,2018-07-09
㈜그린엘피지,N,0,24시간,광주광역시 북구청,2,0,062-410-6475,광주광역시 북구 신용동 477-12,2,개방화장실,2,126.861578,0,광주광역시 북구 임방울대로 945(신용동),0,0,35.216066,0,,2018-07-09
광산업단지 충전소,N,0,24시간,광주광역시 북구청,2,0,062-410-6475,광주광역시 북구 월출동 545-4,1,개방화장실,2,126.869943,0,광주광역시 북구 삼소로 330(월출동),0,0,35.240436,0,,2018-07-09
(주)무등LPG충전소,N,0,24시간,광주광역시 북구청,2,0,062-410-6475,광주광역시 북구 본촌동 766-4,1,개방화장실,2,126.8809657,0,광주광역시 북구 하서로 553(본촌동),0,0,35.22349413,0,,2018-07-09
㈜성광에너지,N,0,24시간,광주광역시 북구청,1,0,062-410-6475,광주광역시 북구 용전동 1223-7,1,개방화장실,1,126.8932356,0,광주광역시 북구 우치로 850(용전동),0,0,35.23819755,0,,2018-07-09
패밀리LPG충전소,N,0,24시간,광주광역시 북구청,1,0,062-410-6475,광주광역시 북구 생용동 75-11,2,개방화장실,2,126.9030012,0,광주광역시 북구 우치로 654 (생용동),0,0,35.22254754,0,,2018-07-09
용두LPG충전소(유),N,0,24시간,광주광역시 북구청,3,0,062-410-6475,광주광역시 북구 용두동 1043-20,3,개방화장실,3,126.868787,0,광주광역시 북구 빛고을대로 656(용두동),0,0,35.220439,0,,2018-07-09
양동복개상가,N,0,(평일)09:00~18:00+(주말)09:00~18:00+(공휴일)+09:00~18:00,양동복개상가,2,0,062-362-2042,광주광역시 서구 양동 441,3,개방화장실,4,126.9055,0,광주광역시 서구 천변좌로 224-1 (양동),0,0,35.152424,0,,2018-02-19
삼호회관,Y,0,06~20,이국현,1,0,062-223-0033,광주광역시 동구 독립로 276 (대인동),1,개방화장실,2,126.9122826,0,광주광역시 동구 독립로 276 (대인동),0,0,35.15531715,2,,2018-06-08
두암제2근린공원,N,0,연중무휴,공원녹지과,2,0,062-608-2961,광주광역시 동구 갈마로 68 (산수동 두암2근린공원),2,공중화장실,2,126.9379859,0,광주광역시 동구 갈마로 68 (산수동 두암2근린공원),0,0,35.16158847,0,,2018-06-08
