화장실명,남녀공용화장실여부,남성용-장애인용대변기수,개방시간,관리기관명,남성용-대변기수,남성용-장애인용소변기수,전화번호,소재지지번주소,여성용-대변기수,구분,남성용-소변기수,경도,여성용-어린이용대변기수,소재지도로명주소,남성용-어린이용대변기수,남성용-어린이용소변기수,위도,여성용-장애인용대변기수,설치년도,데이터기준일자
(재)무궁화공원묘원(입구),N,0,06:00~22:00,(재)무궁화공원묘원,3,0,,경기도 양평군 서종면 도장리산 26번지,5,공중화장실,5,127.3909675,0,경기도 양평군 서종면 도장리산 26번지,0,0,37.61684846,0,,2018-08-01
(재)팔당공원묘원,N,0,06:00~22:00,(재)팔당공원묘원,3,0,,경기도 양평군 양서면 목왕리산 34번지,3,공중화장실,5,127.3950875,0,경기도 양평군 양서면 목왕리산 34번지,0,0,37.56232142,0,,2018-08-01
(주)대명레져산업양평지점,N,0,09:00~18:00,(주)대명레져산업양평지점,3,0,,경기도 양평군 개군면 공세리389번지 7호,2,공중화장실,3,127.5326578,0,경기도 양평군 개군면 신내길7번길 55,0,0,37.46923445,0,,2018-08-01
(주)대명레져산업양평지점,N,0,09:00~18:00,(주)대명레져산업양평지점,8,0,,경기도 양평군 지평면 월산리582번지,6,공중화장실,9,127.5326578,0,경기도 양평군 개군면 신내길7번길 55,0,0,37.46923445,0,,2018-08-01
(주)미리내,N,0,06:00~22:00,(주)미리내,16,0,,경기도 양평군 양평읍 백안리333번지,16,공중화장실,18,127.6515356,0,경기도 양평군 지평면 월산리582번지,0,0,37.47949035,0,,2018-08-01
(주)지엔에스 백안충전소,N,0,연중무휴,지엔에스 백안충전소,2,0,,경기도 양평군 양평읍 창대리 274-13,2,공중화장실,1,127.5263702,0,경기도 양평군 양평읍 경강로 2244,0,0,37.49467079,0,,2018-08-01
OK주유소(늘푸른),N,0,09:00~18:00,OK주유소,1,0,,경기도 양평군 양평읍 창대리 749-4,1,공중화장실,2,127.4804696,0,경기도 양평군 강상면 강남로 938,0,0,37.48634654,0,,2018-08-01
SK성원주유소,N,0,07:00~22:00,SK성원주유소,1,0,,경기도 양평군 강상면 신화리251번지,1,공중화장실,3,127.351069,0,경기도 양평군 서종면 북한강로 888,0,0,37.61647656,0,,2018-08-01
SK승리주유소,N,0,연중무휴,SK승리주유소,1,0,,경기도 양평군 용문면 다문리452번지 7호,1,공중화장실,1,127.457151,0,경기도 양평군 양평읍 경강로 1580,0,0,37.50499245,0,,2018-08-01
SK에너지투엔충전소,N,0,07:00~22:00,SK에너지투엔충전소,1,0,,경기도 양평군 용문면 다문리산 25번지,2,개방화장실,2,127.5263702,0,경기도 양평군 양평읍 경강로 2244,0,0,37.49467079,0,,2018-08-01
TPC우성주유소,Y,0,연중무휴,우성주유소,1,0,,경기도 양평군 용문면 다문리산 25번지,2,개방화장실,3,127.5357543,0,경기도 양평군 개군면 개군로 314,0,0,37.4412245,0,,2018-08-01
갈산산책로(끝),N,0,07:00~22:00,양평읍,1,0,031-772-1024,경기도 양평군 용문면 다문리산 25번지,3,공중화장실,3,127.4985804,0,경기도 양평군 양평읍 창대리 274-13,0,0,37.47301599,0,,2018-08-01
갈산산책로(중간),N,0,연중무휴,양평읍,3,0,031-772-1024,경기도 양평군 용문면 다문리산 25번지,6,공중화장실,3,127.496649,0,경기도 양평군 양평읍 창대리 749-4,0,0,37.48249904,0,,2018-08-01
강가주유소,N,0,09:00~18:00,강가주유소,2,0,,경기도 양평군 용문면 다문리산 25번지,2,개방화장실,3,127.4638289,0,경기도 양평군 양평읍 경강로 1638,0,0,37.50437897,0,,2018-08-01
강상면사무소,N,1,09:00~18:00,강상면,2,0,,경기도 양평군 용문면 다문리산 25번지,3,공중화장실,3,127.4854804,0,경기도 양평군 강상면 신화길 10,0,0,37.47720433,0,,2018-08-01
강상우체국,Y,0,08:00~21:00,강상우체국,1,0,,경기도 양평군 용문면 다문리산 25번지,1,공중화장실,1,127.4852074,0,경기도 양평군 강상면 양평대교길 87,0,0,37.48255019,0,,2018-08-01
강상주유소,Y,0,07:00~22:00,강상주유소,1,0,,경기도 양평군 용문면 다문리산 25번지,1,공중화장실,1,127.458497,0,경기도 양평군 강상면 강남로 709,0,0,37.49576822,0,,2018-08-01
강상체육공원,N,0,07:00~22:00,강상면,4,0,,경기도 양평군 용문면 다문리산 25번지,14,공중화장실,12,127.485949,0,경기도 양평군 강상면 양평대교길 79,0,0,37.48323551,0,,2018-08-01
강상체육공원 위 산책로,N,0,07:00~22:00,강상면,1,0,,경기도 양평군 용문면 다문리산 25번지,2,공중화장실,0,127.485949,0,경기도 양평군 강상면 양평대교길 79,0,0,37.48323551,0,,2018-08-01
강상초등학교,N,0,09:00~18:00,강상초등학교,4,0,,경기도 양평군 용문면 다문리산 25번지,10,공중화장실,6,127.4792179,0,경기도 양평군 강상면 신화리251번지,0,0,37.47377366,0,Jan-84,2018-08-01
강하면사무소1층,N,0,연중무휴,강하면,2,0,,경기도 양평군 용문면 다문리산 25번지,2,개방화장실,3,127.4104507,0,경기도 양평군 강하면 운심길 40-8,0,0,37.49497184,1,,2018-08-01
강하면사무소2층,N,0,연중무휴,강하면,1,0,,경기도 양평군 지평면 곡수리387번지 1호,1,개방화장실,1,127.4104507,0,경기도 양평군 강하면 운심길 40-8,0,0,37.49497184,0,,2018-08-01
강하보건지소,N,0,06:00~22:00,양평군 보건소,1,0,,경기도 양평군 용문면 광탄리434번지,2,공중화장실,2,127.4108491,0,경기도 양평군 강하면 운심길 44,0,0,37.49585344,0,,2018-08-01
강하우체국,Y,0,08:00~18:00,강하우체국,0,0,,경기도 양평군 용문면 광탄리74번지 6호,0,개방화장실,1,127.4108103,0,경기도 양평군 강하면 운심길 41,0,0,37.49621397,0,,2018-08-01
강하주유소,N,0,08:00~18:00,강하주유소,2,0,,경기도 양평군 양동면 쌍학리223번지 2호,2,개방화장실,2,127.4178489,0,경기도 양평군 강하면 강남로 289,0,0,37.50033028,0,,2018-08-01
강하체육공원(테니스장),N,0,연중무휴,강하면,1,0,,경기도 양평군 양평읍 양근리221번지 6호,3,개방화장실,2,127.4163458,0,경기도 양평군 강하면 사호3길 45,0,0,37.49438538,0,,2018-08-01
강하파출소,Y,0,09:00~18:00,강하파출소,1,0,,경기도 양평군 서종면 수입리887번지,1,개방화장실,1,127.4112065,0,경기도 양평군 강하면 운심길 46,0,0,37.49587021,0,,2018-08-01
개군119지역대,Y,0,연중무휴,개군119지역대,0,0,,경기도 양평군 양평읍 양근리234번지,2,개방화장실,2,127.5424819,0,경기도 양평군 개군면 추읍로 39,0,0,37.42832745,0,,2018-08-01
개군농협주유소,N,0,연중무휴,개군농협주유소,2,0,,경기도 양평군 서종면 노문리529번지,2,개방화장실,2,127.5387565,0,경기도 양평군 개군면 여양로 2215,0,0,37.42244109,0,,2018-08-01
개군레포츠공원,N,0,연중무휴,개군면,2,0,,경기도 양평군 서종면 노문리514번지,7,공중화장실,5,127.5301614,0,경기도 양평군 개군면 자진개1길 84,0,0,37.43522379,0,,2018-08-01
개군면복지회관,N,0,연중무휴,개군면,2,0,,경기도 양평군 청운면 다대리84번지,2,개방화장실,2,127.5422415,0,경기도 양평군 개군면 추읍로 37,0,0,37.42821683,0,,2018-08-01
개군면사무소,N,0,연중무휴,개군면사무소,2,0,,경기도 양평군 단월면 보룡리산 11,2,개방화장실,2,127.5367981,0,경기도 양평군 개군면 하자포길33번길 8,0,0,37.42598916,0,,2018-08-01
개군보건지소,N,0,연중무휴,개군보건지소,1,0,,경기도 양평군 단월면 보룡리산 11,2,공중화장실,2,127.5374712,0,경기도 양평군 개군면 하자포길 31-4,0,0,37.42596447,0,,2018-08-01
개군우체국,Y,0,연중무휴,개군우체국,1,0,,경기도 양평군 단월면 보룡리395번지 13호,1,개방화장실,1,127.5377254,0,경기도 양평군 개군면 하자포길 33,0,0,37.4261255,0,,2018-08-01
개군파출소,Y,0,연중무휴,개군파출소,0,0,,경기도 양평군 용문면 다문리787번지 3호,1,개방화장실,1,127.537937,0,경기도 양평군 개군면 하자포길 25,0,0,37.4253785,0,,2018-08-01
경기도학생양평야영장,N,0,08:00~18:00,양평군,4,0,,경기도 양평군 강상면 병산리1072번지,9,공중화장실,8,127.5740056,0,경기도 양평군 용문면 다문점말5길 12-33,0,0,37.49722761,3,,2018-08-01
경기영어마을(1LD),N,0,09:00~18:00,경기영어마을,4,0,,경기도 양평군 양서면 증동리573번지,8,공중화장실,4,127.5755959,0,경기도 양평군 용문면 다문리산 25번지,0,0,37.49991565,2,,2018-08-01
경기영어마을(강의1동),N,0,09:00~18:00,경기영어마을,4,0,,경기도 양평군 서종면 도장리97번지 5호,10,공중화장실,6,127.5755959,0,경기도 양평군 용문면 다문리산 25번지,0,0,37.49991565,1,,2018-08-01
경기영어마을(강의2동),N,0,09:00~18:00,경기영어마을,2,0,,경기도 양평군 용문면 다문리409번지 4호,6,공중화장실,4,127.5755959,0,경기도 양평군 용문면 다문리산 25번지,0,0,37.49991565,0,,2018-08-01
경기영어마을(강의3동),N,0,09:00~18:00,경기영어마을,4,0,,경기도 양평군 옥천면 용천리 산25-3,6,공중화장실,4,127.5755959,0,경기도 양평군 용문면 다문리산 25번지,0,0,37.49991565,0,,2018-08-01
경기영어마을(강의4동),N,0,09:00~18:00,경기영어마을,3,0,,경기도 양평군 양서면 양수리 681-1,4,공중화장실,2,127.5755959,0,경기도 양평군 용문면 다문리산 25번지,0,0,37.49991565,0,,2018-08-01
경기영어마을(식당동),N,0,09:00~18:00,경기영어마을,6,0,,경기도 양평군 양서면 양수리 1157,12,공중화장실,6,127.5755959,0,경기도 양평군 용문면 다문리산 25번지,0,0,37.49991565,3,,2018-08-01
경기영어마을(워터피아),N,0,09:00~18:00,경기영어마을,1,0,,경기도 양평군 서종면 수입리745번지 1호,2,공중화장실,1,127.5755959,0,경기도 양평군 용문면 다문리산 25번지,0,0,37.49991565,0,,2018-08-01
경기영어마을(체육관),N,0,09:00~18:00,경기영어마을,2,0,,경기도 양평군 양평읍 양근리 403-20,5,공중화장실,3,127.5755959,0,경기도 양평군 용문면 다문리산 25번지,0,0,37.49991565,1,,2018-08-01
경기영어마을(체험관),N,0,09:00~18:00,경기영어마을,1,0,,경기도 양평군 용문면 삼성리725번지 1호,1,공중화장실,1,127.5755959,0,경기도 양평군 용문면 다문리산 25번지,0,0,37.49991565,0,,2018-08-01
경기영어마을(체험전시관),N,0,09:00~18:00,경기영어마을,1,0,,경기도 양평군 청운면 갈운리913번지,3,공중화장실,2,127.5755959,0,경기도 양평군 용문면 다문리산 25번지,0,0,37.49991565,0,,2018-08-01
경기영어마을(출입국 관리),N,0,09:00~18:00,경기영어마을,2,0,,경기도 양평군 용문면 마룡리 692-1,4,공중화장실,2,127.5755959,0,경기도 양평군 용문면 다문리산 25번지,0,0,37.49991565,1,,2018-08-01
경기영어마을(타운센터),N,0,09:00~18:00,경기영어마을,2,0,,경기도 양평군 서종면 명달리 343,4,공중화장실,2,127.5755959,0,경기도 양평군 용문면 다문리산 25번지,0,0,37.49991565,0,,2018-08-01
고동산등산로입구(수입3리 마을회관앞),N,0,연중무휴,서종면,1,0,,경기도 양평군 서종면 명달리 434,1,공중화장실,1,127.3887323,0,경기도 양평군 서종면 화서로 85-3,0,0,37.64438261,0,,2018-08-01
곡수보건진료소,Y,0,07:00~22:00,양평군 보건소,0,0,,경기도 양평군 서종면 문호리212번지,1,공중화장실,1,127.6138402,0,경기도 양평군 지평면 곡수길 52,0,0,37.41837373,0,,2018-08-01
곡수초등학교,N,0,08:00~18:00,곡수초등학교,9,0,,경기도 양평군 서종면 문호리101번지,11,공중화장실,7,127.6113785,0,경기도 양평군 지평면 곡수길56번길 17,0,0,37.4184874,4,,2018-08-01
공주휴게소,N,0,연중무휴,공주휴게소,1,0,031-773-4227,경기도 양평군 서종면 문호리1211번지,1,공중화장실,1,127.7918247,0,경기도 양평군 청운면 경강로 5098,0,0,37.5347214,0,,2018-08-01
광이쉼터,N,0,07:00~22:00,광이쉼터,2,0,,경기도 양평군 양평읍 오빈리 155,5,공중화장실,4,127.6255807,0,경기도 양평군 용문면 경강로 3305,0,0,37.51130593,2,,2018-08-01
광탄주유소 화장실,N,0,07:00~22:00,광탄주유소,1,0,,경기도 양평군 강하면 운심리268번지 2호,2,공중화장실,2,127.6297991,0,경기도 양평군 용문면 광탄리74번지 6호,0,0,37.50668125,0,,2018-08-01
구둔역,N,0,05:00~23:00,철도청,1,0,,경기도 양평군 청운면 비룡리898,3,공중화장실,1,127.7544825,0,경기도 양평군 양동면 양동역길 19,0,0,37.42030242,0,,2018-08-01
구슬고개휴게소,N,0,연중무휴,구슬고개휴게소,1,0,,경기도 양평군 청운면 비룡리 898,2,공중화장실,4,127.6224219,0,경기도 양평군 지평면 지평로 750,0,0,37.4468582,0,,2018-08-01
국립농산물품질관리원양평출장소,N,0,연중무휴,국립농산물품질관리원양평출장소,1,0,031-772-2048,경기도 양평군 서종면 노문리산 21번지 7호,2,공중화장실,1,127.4944788,0,경기도 양평군 양평읍 한빛길 38,0,0,37.48739877,0,,2018-08-01
국립농산물품질관리원양평출장소,N,0,08:00~18:00,국립농산물품질관리원양평출장소,3,0,,경기도 양평군 서종면 수능리283번지,2,공중화장실,1,127.4944788,0,경기도 양평군 양평읍 한빛길 38,0,0,37.48739877,0,,2018-08-01
국수보건지소1층,N,0,06:00~22:00,양평군 보건소,0,0,,경기도 양평군 용문면 다문리390번지 3호,2,공중화장실,2,127.403687,0,경기도 양평군 양서면 복개길5번길 13,0,0,37.51403147,0,,2018-08-01
국수보건지소2층,N,0,06:00~22:00,양평군 보건소,0,0,,경기도 양평군 개군면 공세리 389,2,공중화장실,2,127.403687,0,경기도 양평군 양서면 복개길5번길 13,0,0,37.51403147,0,,2018-08-01
국수보건지소3층,N,0,09:00~18:00,양평군 보건소,0,0,,경기도 양평군 용문면 금곡리311번지 4호,2,공중화장실,2,127.403687,0,경기도 양평군 양서면 복개길5번길 13,0,0,37.51403147,0,,2018-08-01
국수역,N,0,06:00~18:00,철도청,4,0,,경기도 양평군 옥천면 용천리 946,10,공중화장실,6,127.3994717,1,경기도 양평군 양서면 국수역길 45,0,0,37.51599556,2,,2018-08-01
군민회관,N,0,연중무휴,양평군 평생학습과,3,0,,경기도 양평군 양평읍 공흥리316번지 10호,5,공중화장실,5,127.4847301,0,경기도 양평군 양평읍 마유산로 1,0,0,37.49686722,0,,2018-08-01
금방아수상스키장,N,0,07:00~22:00,금방아수상스키장,1,0,,경기도 양평군 단월면 고북길 97-23,1,공중화장실,1,127.3657872,0,경기도 양평군 서종면 수입리887번지,0,0,37.6383113,0,,2018-08-01
남양주세무서양평출장소,N,0,08:00~18:00,남양주세무서양평출장소,1,0,,경기도 양평군 용문면 삼성리 941,1,공중화장실,1,127.4935136,0,경기도 양평군 양평읍 양근강변길 7,0,0,37.48642973,0,,2018-08-01
남한강주유소,N,0,07:00~22:00,남한강주유소,1,0,,경기도 양평군 용문면 삼성리 118-2,2,공중화장실,2,127.4774322,0,경기도 양평군 양평읍 양근로 17,0,0,37.50086134,0,,2018-08-01
남한강휴게소,N,0,연중무휴,남한강휴게소,6,0,,경기도 양평군 용문면 연수리 220-5,12,공중화장실,7,127.3941857,0,경기도 양평군 양서면 경강로 962,0,0,37.50885218,0,,2018-08-01
노문2교,N,0,06:00~22:00,서종면,1,0,,경기도 양평군 양평읍 공흥리113번지,2,공중화장실,0,127.4270799,0,경기도 양평군 서종면 노문리529번지,0,0,37.63801885,0,,2018-08-01
노문교입구,N,0,06:00~22:00,서종면,1,0,,경기도 양평군 옥천면 옥천리 931-2,1,공중화장실,1,127.4311983,0,경기도 양평군 서종면 노문리514번지,0,0,37.64018064,0,,2018-08-01
노문리체육공원,N,0,연중무휴,서종면,1,0,,경기도 양평군 서종면 문호리687번지 2호,1,공중화장실,1,127.4277933,0,경기도 양평군 서종면 화서1로 255,0,0,37.63913709,0,,2018-08-01
노문보건진료소,N,0,05:00~23:00,양평군 보건소,1,0,,경기도 양평군 서종면 문호리687번지 2호,1,공중화장실,1,127.4313568,0,경기도 양평군 서종면 화서로 660-1,0,0,37.64172614,0,,2018-08-01
다대주유소,N,0,09:00~21:00,다대주유소,2,0,031-774-9073,경기도 양평군 서종면 수능리238번지,1,공중화장실,1,127.7309228,0,경기도 양평군 청운면 설악로 249,0,0,37.56888998,0,,2018-08-01
단월레포츠공원 2,N,0,07:00~22:00,단월면,2,0,,경기도 양평군 서종면 정배리318번지,5,개방화장실,3,127.6714945,0,경기도 양평군 단월면 보룡리산 11,0,0,37.54386413,0,,2018-08-01
단월레포츠공원 3,N,0,연중무휴,단월면,2,0,,경기도 양평군 양동면 쌍학리 793,3,개방화장실,3,127.6714945,0,경기도 양평군 단월면 보룡리산 11,0,0,37.54386413,0,,2018-08-01
단월면 복지회관1층,N,0,연중무휴,단월면,4,0,,경기도 양평군 양동면 쌍학리793번지,4,개방화장실,3,127.6745065,0,경기도 양평군 단월면 보룡길 44-1,0,0,37.53806985,0,,2018-08-01
단월면 복지회관2층,N,0,연중무휴,단월면,4,0,,경기도 양평군 단월면 석산리74번지,4,개방화장실,3,127.6745065,0,경기도 양평군 단월면 보룡길 44-1,0,0,37.53806985,0,,2018-08-01
단월면 복지회관3층,N,0,연중무휴,단월면,4,0,,경기도 양평군 개군면 앙덕리 25-4,4,개방화장실,3,127.6745065,0,경기도 양평군 단월면 보룡길 44-1,0,0,37.53806985,0,,2018-08-01
단월면 복지회관4층,Y,0,연중무휴,단월면,2,0,,경기도 양평군 용문면 망능리55번지 1호,0,개방화장실,2,127.6745065,0,경기도 양평군 단월면 보룡길 44-1,0,0,37.53806985,0,,2018-08-01
단월면사무소,N,0,연중무휴,단월면,2,0,,경기도 양평군 용문면 덕촌리310번지,2,개방화장실,2,127.6729902,0,경기도 양평군 단월면 보룡길 53,0,0,37.53855783,0,,2018-08-01
단월버스영업소,N,0,08:00~18:00,금강운수,1,0,,경기도 양평군 서종면 서후리산 1번지 1호,1,공중화장실,1,127.6753817,0,경기도 양평군 단월면 재인동길 236,0,0,37.53274183,0,,2018-08-01
단월보건지소,N,0,연중무휴,양평군 보건소,2,0,,경기도 양평군 서종면 수능리산 30번지 5호,2,공중화장실,2,127.6729902,0,경기도 양평군 단월면 보룡길 53,0,0,37.53855783,0,,2018-08-01
단월우체국,N,0,연중무휴,단월우체국,1,0,,경기도 양평군 서종면 수입리673번지,1,공중화장실,1,127.6740688,0,경기도 양평군 단월면 재인동길 2-8,0,0,37.53268807,0,,2018-08-01
단월주유소,N,0,08:00~22:00,단월주유소,1,0,,경기도 양평군 양평읍 대흥리506번지 24호,1,공중화장실,0,127.6766392,0,경기도 양평군 단월면 단월로 59,0,0,37.54119668,0,,2018-08-01
단월중학교,N,0,08:00~18:00,단월중학교,2,0,,경기도 양평군 양평읍 오빈리482번지 3호,3,공중화장실,3,127.6725013,0,경기도 양평군 단월면 보룡길 83,0,0,37.54106535,0,,2018-08-01
대동주유소 화장실,N,0,07:00~22:00,대동주유소,2,0,,경기도 양평군 지평면 망미리221번지 1호,1,공중화장실,2,127.5894656,0,경기도 양평군 용문면 용문로 309,0,0,37.48157868,0,,2018-08-01
대명휴게소,N,0,08:00~18:00,대명휴게소,2,0,,경기도 양평군 양평읍 원덕리 387,4,공중화장실,3,127.6633286,0,경기도 양평군 단월면 경강로 3701,0,0,37.52181452,0,,2018-08-01
대석2리 상촌계곡,N,0,07:00~22:00,강상면,2,0,,경기도 양평군 양서면 신원리산 53번지,2,공중화장실,0,127.4535537,0,경기도 양평군 강상면 백석길 264,0,0,37.43749956,0,,2018-08-01
대성에너지(주) 화장실,N,0,07:00~22:00,대성에너지(주),2,0,,경기도 양평군 양평읍 마유산로 양근리520번지,2,공중화장실,2,127.4545916,0,경기도 양평군 강상면 강남로 664,0,0,37.49846468,0,Jan-17,2018-08-01
대성에너지㈜,N,0,연중무휴,대성에너지(주),2,0,,경기도 양평군 양평읍 양근리514번지,2,공중화장실,2,127.4545916,0,경기도 양평군 강상면 강남로 664,0,0,37.49846468,0,,2018-08-01
대아초등학교,N,0,09:00~18:00,대아초등학교,1,0,,경기도 양평군 지평면 수곡리199번지 1호,5,공중화장실,3,127.4155997,0,경기도 양평군 양서면 방죽들길 5,0,0,37.52789073,6,,2018-08-01
대흥주유소,Y,0,06:00~22:00,대흥주유소,1,0,,경기도 양평군 양평읍 오빈리414번지 4호,0,공중화장실,2,127.543213,0,경기도 양평군 양평읍 대흥로 106-4,0,0,37.48319513,0,,2018-08-01
도장2리유원지(입구),N,0,09:00~18:00,서종면,1,0,,경기도 양평군 옥천면 아신리산 151번지 1호,0,공중화장실,0,127.3936737,0,경기도 양평군 서종면 중미산로 479,0,0,37.60336074,0,Dec-00,2018-08-01
동물공원주유소,N,0,07:00~22:00,동물공원주유소,1,0,,경기도 양평군 옥천면 아신리산 151번지 1호,1,공중화장실,2,127.5933343,0,경기도 양평군 용문면 다문리409번지 4호,0,0,37.49441471,0,,2018-08-01
동오보건진료소,Y,0,07:00~22:00,양평군 보건소,0,0,,경기도 양평군 양평읍 옥천면 아신리 산112-2,1,공중화장실,1,127.3965819,0,경기도 양평군 강하면 동오1길 42,0,0,37.46834591,0,,2018-08-01
두명안펜션,Y,0,06:00~22:00,옥천면,0,0,,경기도 양평군 용문면 신점리563번지,1,개방화장실,0,127.5152583,0,경기도 양평군 옥천면 용천리 산134,0,0,37.565945,0,Jan-17,2018-08-01
두명안휴식지,N,0,연중무휴,옥천면,1,0,,경기도 양평군 양동면 쌍학리213번지 2호,1,개방화장실,2,127.5304853,0,경기도 양평군 옥천면 용천리 산25-3,0,0,37.56480359,0,,2018-08-01
두물머리,N,0,07:00~22:00,양서면,3,0,,경기도 양평군 양동면 쌍학리425번지 1호,6,개방화장실,3,127.3183352,0,경기도 양평군 양서면 양수리 681-1,0,0,37.53666593,0,,2018-08-01
두물머리주차장,N,0,07:00~22:00,양서면,1,0,,경기도 양평군 양동면 석곡리160번지 1호,3,개방화장실,2,127.3193296,0,경기도 양평군 양서면 양수리 1157,0,0,37.54167639,0,,2018-08-01
들녁가든앞,N,0,06:00~22:00,서종면,1,0,,경기도 양평군 양동면 쌍학리 181번지 3호,1,공중화장실,1,127.374265,0,경기도 양평군 서종면 수입리745번지 1호,0,0,37.64614125,0,,2018-08-01
라온광장옆(양근천),N,0,연중무휴,양평읍,1,0,031-772-1024,경기도 양평군 양동면 쌍학리223번지 2호,1,공중화장실,2,127.4896719,0,경기도 양평군 양평읍 양근리 403-20,0,0,37.49168232,1,,2018-08-01
라파엘복지재단,N,0,09:00~18:00,라파엘복지재단,6,0,031-772-3640,경기도 양평군 양동면 쌍학리184번지 29호,6,공중화장실,6,127.504703,0,경기도 양평군 양평읍 중앙로111번길 34,0,0,37.4965277,0,,2018-08-01
라파엘의집,N,0,08:00~18:00,라파엘의집,0,0,,경기도 양평군 양동면 쌍학리215번지 2호,0,공중화장실,0,127.5607727,0,경기도 양평군 용문면 대흥로 321,0,0,37.47334627,0,,2018-08-01
라피네주유소,N,0,07:00~22:00,라피네주유소,1,0,,경기도 양평군 양동면 쌍학리 45,1,공중화장실,1,127.4754141,0,경기도 양평군 양평읍 경강로 1747,0,0,37.50219935,0,,2018-08-01
로뎀의집,N,0,08:00~18:00,로뎀의집,2,0,,경기도 양평군 양동면 석곡리190번지,2,공중화장실,1,127.7530292,0,경기도 양평군 청운면 증골길24번길 26,0,0,37.54304074,0,,2018-08-01
마룡교아래,N,0,06:00~22:00,용문면,1,0,,경기도 양평군 양서면 용담리 425,1,공중화장실,1,127.602768,0,경기도 양평군 용문면 마룡리 692-1,0,0,37.49702669,0,,2018-08-01
만남의광장휴게소,N,0,연중무휴,만남의광장휴게소,6,0,,경기도 양평군 양서면 용담리 425,12,공중화장실,9,127.3935632,0,경기도 양평군 양서면 경강로 954,0,0,37.5083497,0,,2018-08-01
명달고개내리막길도로변(버스종점),N,0,06:00~22:00,서종면,1,0,,경기도 양평군 양서면 양수리 557-10,1,공중화장실,1,127.4424647,0,경기도 양평군 서종면 명달리 343,0,0,37.61949929,1,,2018-08-01
명달교인근,N,0,연중무휴,서종면,1,0,,경기도 양평군 양서면 양수리 1152,1,공중화장실,1,127.447485,0,경기도 양평군 서종면 화서로 980,0,0,37.62180849,0,,2018-08-01
명달리버스종점옆,N,0,06:00~22:00,서종면,1,0,,경기도 양평군 양평읍 양근리산 37번지,1,공중화장실,0,127.4360229,0,경기도 양평군 서종면 명달리 434,0,0,37.6157932,6,,2018-08-01
명달리상산재,N,0,연중무휴,서종면,1,0,,경기도 양평군 양평읍 양근리산 37번지,1,공중화장실,1,127.4423061,0,경기도 양평군 서종면 화서로 813,0,0,37.6347841,0,,2018-08-01
몽양여운형선생기념관,N,0,09:00~21:00,양평군 문화관광과,2,0,,경기도 양평군 양평읍 양근리산 37번지,5,공중화장실,3,127.3735324,0,경기도 양평군 양서면 몽양길 66,0,0,37.53046757,0,,2018-08-01
문호3리버스종점,N,0,05:00~23:00,서종면,2,0,,경기도 양평군 양평읍 양근리산 37번지,2,공중화장실,1,127.3536927,0,경기도 양평군 서종면 중미산로 13,0,0,37.60414325,0,,2018-08-01
문호5리마진배(다리건너),N,0,06:00~22:00,서종면,1,0,,경기도 양평군 양평읍 공흥리696번지 3호,1,공중화장실,1,127.371105,0,경기도 양평군 서종면 문호리212번지,0,0,37.60312032,1,,2018-08-01
문호5리마진배(입구),N,0,06:00~22:00,서종면,1,0,,경기도 양평군 양평읍 양근리237번지 1호,2,공중화장실,0,127.3685147,0,경기도 양평군 서종면 문호리101번지,0,0,37.6023608,0,,2018-08-01
문호유선장 화장실,N,0,07:00~22:00,문호유선장,1,0,,경기도 양평군 양서면 국수리330번지 12호,1,공중화장실,1,127.3506724,0,경기도 양평군 서종면 문호리1211번지,0,0,37.59567939,0,,2018-08-01
문호주유소,N,0,07:00~22:00,문호주유소,1,0,,경기도 양평군 양서면 국수리330번지 12호,1,공중화장실,0,127.3627097,0,경기도 양평군 서종면 중미산로 97,0,0,37.60280765,0,,2018-08-01
물맑은양평체육관,N,0,05:00~23:00,양평군 평생학습과,7,0,,경기도 양평군 양서면 국수리330번지 12호,8,공중화장실,9,127.4857386,0,경기도 양평군 양평읍 마유산로 11,0,0,37.49683065,0,,2018-08-01
물안개공원,N,0,연중무휴,양평읍,3,0,031-772-1024,경기도 양평군 양평읍 양근리491번지 1호,2,공중화장실,2,127.4778483,0,경기도 양평군 양평읍 오빈리 155,0,0,37.49942887,0,,2018-08-01
민기주유소,Y,0,연중무휴,민기주유소,1,0,,경기도 양평군 양평읍 양근리491번지 1호,1,공중화장실,2,127.6180437,0,경기도 양평군 지평면 지평로 946,0,0,37.42951707,0,,2018-08-01
바탕골예술관,N,0,09:00~18:00,바탕골예술관,5,0,,경기도 양평군 양평읍 회현리 306-1,10,공중화장실,7,127.505866,0,경기도 양평군 강하면 운심리268번지 2호,0,0,37.45434508,6,,2018-08-01
밤골유원지내(1),N,0,09:00~18:00,청운면,1,0,031-770-3222,경기도 양평군 양평읍 양근리393번지 23호,1,공중화장실,1,127.695769,0,경기도 양평군 청운면 비룡리898,0,0,37.53663826,0,,2018-08-01
밤골유원지내(2),N,0,07:00~22:00,청운면,1,0,031-770-3222,경기도 양평군 양평읍 공흥리산 48번지 1호,1,공중화장실,1,127.695769,0,경기도 양평군 청운면 비룡리 898,0,0,37.53663826,0,,2018-08-01
백안주유소,N,0,09:00~18:00,백안주유소,1,0,,경기도 양평군 양평읍 양근리257번지 3호,2,공중화장실,3,127.5166978,0,경기도 양평군 양평읍 중앙로 259,0,0,37.49243938,0,,2018-08-01
백운봉주유소,Y,0,06:00~22:00,백운봉주유소,0,0,,경기도 양평군 양평읍 양근리543번지,1,공중화장실,2,127.525695,0,경기도 양평군 양평읍 경강로 2209,0,0,37.49706685,0,,2018-08-01
백운봉휴게소,N,0,06:00~22:00,백운봉휴게소,2,0,,경기도 양평군 양평읍 공흥리산 48번지 1호,4,공중화장실,5,127.525695,0,경기도 양평군 양평읍 경강로 2209,0,0,37.49706685,0,,2018-08-01
벽계마당입구,N,0,연중무휴,서종면,1,0,,경기도 양평군 양평읍 양근리산 50번지 2호,1,공중화장실,0,127.3857558,0,경기도 양평군 서종면 내수입길 54,0,0,37.64111281,0,,2018-08-01
복지회관,N,0,연중무휴,청운면,1,0,031-770-3222,경기도 양평군 용문면 다문리793번지 2호,2,공중화장실,2,127.7083261,0,경기도 양평군 청운면 용두민속장터길 2,0,0,37.55367865,0,,2018-08-01
복지회관1층화장실,N,0,연중무휴,청운면,2,0,031-770-3222,경기도 양평군 양평읍 백안리1번지 1호,4,공중화장실,3,127.7109961,0,경기도 양평군 청운면 용두로 180,0,0,37.55645564,0,,2018-08-01
복지회관2층화장실,N,0,연중무휴,청운면,2,0,031-770-3222,경기도 양평군 양평읍 공흥리산 48번지 1호,3,공중화장실,2,127.7109961,0,경기도 양평군 청운면 용두로 180,0,0,37.55645564,0,,2018-08-01
복지회관3층화장실,N,0,09:00~18:00,청운면,2,0,031-770-3222,경기도 양평군 양평읍 창대리639번지,3,공중화장실,2,127.7109961,0,경기도 양평군 청운면 용두로 180,0,0,37.55645564,0,,2018-08-01
부안보건진료소,Y,0,연중무휴,양평군 보건소,1,0,,경기도 양평군 양평읍 양근리 산 20-2,0,공중화장실,1,127.6695469,0,경기도 양평군 단월면 단월로 326,0,0,37.56345172,0,,2018-08-01
북부지방산림청양평경영팀,N,0,06:00~22:00,북부지방산림청양평경영팀,2,0,,경기도 양평군 양평읍 양근리 산 20-2,1,공중화장실,2,127.5984749,0,경기도 양평군 용문면 용문로 431,0,0,37.4896027,0,,2018-08-01
빙상경기장,N,0,06:00~22:00,개군면,1,0,,경기도 양평군 양평읍 양근리321번지 2호,1,개방화장실,1,127.5458189,0,경기도 양평군 개군면 공세리 389,0,0,37.46529288,0,,2018-08-01
사계절주유소 화장실,N,0,07:00~22:00,사계절주유소,2,0,,경기도 양평군 단월면 석산리1번지,1,공중화장실,2,127.6131163,0,경기도 양평군 용문면 용문로 640,0,0,37.50297404,0,,2018-08-01
사나사,N,0,09:00~18:00,옥천면,2,0,,경기도 양평군 양평읍 공흥리714번지 7호,5,개방화장실,4,127.500301,0,경기도 양평군 옥천면 용천리 319-7,0,0,37.52962015,0,,2018-08-01
사나사 입구 약수터 아래,N,0,연중무휴,옥천면,1,0,,경기도 양평군 양평읍 공흥리714번지 7호,1,개방화장실,1,127.5038935,0,경기도 양평군 옥천면 용천리 산142,0,0,37.53492073,0,,2018-08-01
사나사 입구 약수터 앞,N,0,07:00~22:00,옥천면,1,0,,경기도 양평군 양서면 신원리182번지 1호,1,개방화장실,2,127.5038935,0,경기도 양평군 옥천면 용천리 산142,0,0,37.53492073,0,,2018-08-01
사나사 절 앞,N,0,연중무휴,옥천면,1,0,,경기도 양평군 양평읍 양근리491번지 9호,1,개방화장실,2,127.5060633,0,경기도 양평군 옥천면 용천리 946,0,0,37.5372216,0,,2018-08-01
사나사 초입,N,0,연중무휴,옥천면,1,0,,경기도 양평군 옥천면 아신리368번지 1호,2,개방화장실,2,127.4750323,0,경기도 양평군 옥천면 백현길 1,0,0,37.52831534,0,,2018-08-01
산림경영사업소,N,0,09:00~18:00,양평군 산림경영사업소,4,0,,경기도 양평군 용문면 삼성리220번지 17호,4,공중화장실,8,127.5037814,0,경기도 양평군 양평읍 중앙로 133,0,0,37.49333489,1,,2018-08-01
산음보건진료소1층,Y,0,연중무휴,양평군 보건소,0,0,,경기도 양평군 단월면 부안리162번지,1,공중화장실,0,127.6012783,0,경기도 양평군 단월면 봉미산샘골길 10,0,0,37.60614721,0,,2018-08-01
산음보건진료소2층,Y,0,연중무휴,양평군 보건소,0,0,,경기도 양평군 단월면 부안리163번지,1,공중화장실,0,127.6012783,0,경기도 양평군 단월면 봉미산샘골길 10,0,0,37.60614721,0,,2018-08-01
산음자연휴양림,Y,0,연중무휴,산림청,1,0,,경기도 양평군 용문면 연수리 541,1,공중화장실,1,127.5979262,0,경기도 양평군 단월면 고북길 97-23,0,0,37.59482633,0,,2018-08-01
산음자연휴양림물레울광장1,Y,0,연중무휴,산림청,1,0,,경기도 양평군 양동면 석곡리406번지 3호,1,공중화장실,1,127.5979262,0,경기도 양평군 단월면 고북길 97-23,0,0,37.59482633,0,,2018-08-01
산음자연휴양림물레울광장뒤,Y,0,연중무휴,산림청,1,0,,경기도 양평군 용문면 화전리 1,1,공중화장실,1,127.5979262,0,경기도 양평군 단월면 고북길 97-23,0,0,37.59482633,0,,2018-08-01
산음자연휴양림석간수인근도로변,Y,0,연중무휴,산림청,1,0,,경기도 양평군 서종면 노문리산 73번지 5호,1,공중화장실,1,127.5979262,0,경기도 양평군 단월면 고북길 97-23,0,0,37.59482633,0,,2018-08-01
산음자연휴양림석간수주차장,N,0,09:00~18:00,산림청,1,0,,경기도 양평군 양평읍 오빈리448번지 6호,1,공중화장실,1,127.5979262,0,경기도 양평군 단월면 고북길 97-23,0,0,37.59482633,0,,2018-08-01
산음자연휴양림인이피유원지내,Y,0,연중무휴,산림청,1,0,,경기도 양평군 용문면 연수리527번지,1,공중화장실,1,127.5979262,0,경기도 양평군 단월면 고북길 97-23,0,0,37.59482633,0,,2018-08-01
삼성교옆,N,0,06:00~22:00,용문면,1,0,,경기도 양평군 옥천면 옥천리740번지,1,공중화장실,1,127.5750258,0,경기도 양평군 용문면 삼성리 941,0,0,37.48043529,0,,2018-08-01
삼성리체육공원,N,0,06:00~22:00,용문면,1,0,,경기도 양평군 옥천면 옥천리730번지 1호,1,공중화장실,1,127.5854326,0,경기도 양평군 용문면 삼성리 118-2,0,0,37.4782254,0,,2018-08-01
상원사입구,N,0,06:00~22:00,용문면,1,0,,경기도 양평군 옥천면 옥천리549번지 1호,1,공중화장실,0,127.5531609,0,경기도 양평군 용문면 상원사길 292,0,0,37.54855744,0,,2018-08-01
새소망주유소,N,0,07:00~22:00,새소망주유소,2,0,,경기도 양평군 옥천면 아신리 384-18,2,공중화장실,2,127.5049141,0,경기도 양평군 양평읍 경강로 2029,0,0,37.50101737,0,,2018-08-01
새한강에너지,N,0,07:00~22:00,새한강에너지,2,0,,경기도 양평군 지평면 옥현리528번지 2호,2,공중화장실,2,127.4556607,0,경기도 양평군 옥천면 경강로 1564,0,0,37.50542348,0,,2018-08-01
서종면다목적복지회관,N,0,09:00~18:00,서종면,4,0,,경기도 양평군 양동면 삼산리247번지,12,공중화장실,8,127.3487122,0,경기도 양평군 서종면 북한강로 777,0,0,37.60658353,0,Dec-00,2018-08-01
서종면사무소,N,0,연중무휴,서종면,3,0,,경기도 양평군 청운면 신론리284번지 5호,3,공중화장실,3,127.3487122,0,경기도 양평군 서종면 북한강로 777,0,0,37.60658353,5,,2018-08-01
서종보건지소,N,0,연중무휴,양평군 보건소,1,0,,경기도 양평군 용문면 광탄리434번지 1호,2,공중화장실,2,127.3487122,0,경기도 양평군 서종면 북한강로 777,0,0,37.60658353,1,,2018-08-01
서종우체국,N,0,연중무휴,서종우체국,1,0,,경기도 양평군 용문면 마룡리 272,1,공중화장실,1,127.3489535,0,경기도 양평군 서종면 하문호길 3,0,0,37.60586202,0,,2018-08-01
서종작은도서관,N,0,연중무휴,서종면,2,0,,경기도 양평군 용문면 다문리343번지,3,공중화장실,3,127.3487122,0,경기도 양평군 서종면 북한강로 777,0,0,37.60658353,0,,2018-08-01
서종주유소,N,0,07:00~22:00,서종주유소,1,0,,경기도 양평군 용문면 344번지 2호,1,공중화장실,1,127.3527525,0,경기도 양평군 서종면 북한강로 676,0,0,37.59784637,0,,2018-08-01
서종중학교(별관),N,0,08:00~18:00,서종중학교,3,0,,경기도 양평군 용문면 신점리374번지 1호,5,공중화장실,3,127.3507973,0,경기도 양평군 서종면 북한강로 854,0,0,37.61360863,0,,2018-08-01
서종중학교(본관),N,0,08:00~18:00,서종중학교,5,0,,경기도 양평군 용문면 다문리348번지 1호,10,공중화장실,7,127.3507973,0,경기도 양평군 서종면 북한강로 854,0,0,37.61360863,0,,2018-08-01
서종참숯가마,N,0,06:00~22:00,서종면,1,0,,경기도 양평군 용문면 마룡리306번지 4호,1,공중화장실,1,127.3896929,0,경기도 양평군 서종면 황순원로 432,0,0,37.58181515,8,,2018-08-01
서종체육공원,N,0,연중무휴,서종면,3,0,,경기도 양평군 용문면 다문리 626-2,5,공중화장실,3,127.3467238,0,경기도 양평군 서종면 북한강로630번길 10,0,0,37.59200782,1,,2018-08-01
서종체육공원(테니스장),N,0,연중무휴,서종면,1,0,,경기도 양평군 용문면 다문리736번지 13호,1,공중화장실,1,127.3467238,0,경기도 양평군 서종면 북한강로630번길 10,0,0,37.59200782,1,,2018-08-01
서종초등학교정배분교,N,0,08:00~18:00,서종초등학교정배분교,3,0,,경기도 양평군 용문면 광탄리434번지 6호,6,공중화장실,5,127.6255536,0,경기도 양평군 서종면 정배리318번지,0,0,37.51130247,1,,2018-08-01
서종파출소,N,0,연중무휴,서종파출소,1,0,,경기도 양평군 용문면 마룡리131번지,1,공중화장실,1,127.3520442,0,경기도 양평군 서종면 무내미길 45,0,0,37.6032544,0,,2018-08-01
석곡천,N,0,09:00~18:00,양동면,3,0,,경기도 양평군 용문면 다문리409번지 15호,2,공중화장실,2,127.5933343,0,경기도 양평군 양동면 쌍학리 793,0,0,37.49441471,0,,2018-08-01
석곡천,N,0,07:00~18:00,양동면,2,0,,경기도 양평군 옥천면 용천리 441-1,2,공중화장실,2,127.4919241,0,경기도 양평군 양동면 쌍학리793번지,0,0,37.52678658,2,Jan-17,2018-08-01
석불주유소,Y,0,08:00~18:00,석불주유소,1,0,,경기도 양평군 옥천면 용천리859번지 3호,1,공중화장실,3,127.6585638,0,경기도 양평군 지평면 지평의병로 440,0,0,37.45533354,0,,2018-08-01
석산주유소 화장실,N,0,07:00~22:00,석산주유소,2,0,,경기도 양평군 양평읍 원덕리 70,2,공중화장실,2,127.6234789,0,경기도 양평군 단월면 석산리74번지,0,0,37.64079157,0,,2018-08-01
선사유적지,N,0,09:00~18:00,개군면,1,0,,경기도 양평군 양평읍 오빈리118번지 7호,2,공중화장실,2,127.5101143,0,경기도 양평군 개군면 앙덕리 25-4,0,0,37.44150733,0,,2018-08-01
성요셉의집,N,0,06:00~22:00,성요셉의집,5,0,,경기도 양평군 용문면 덕촌리16번지,3,공중화장실,0,127.6450269,0,경기도 양평군 용문면 상망길 180,0,0,37.53404317,0,,2018-08-01
성일유니온주유소,N,0,연중무휴,성일유니온주유소,2,0,,경기도 양평군 지평면 지평리385번지 3호,2,공중화장실,2,127.5049141,0,경기도 양평군 양평읍 경강로 2029,0,0,37.50101737,0,,2018-08-01
세심정공원내,N,0,06:00~22:00,용문면,1,0,,경기도 양평군 서종면 정배리149번지 1호,1,공중화장실,0,127.591527,0,경기도 양평군 용문면 덕촌리310번지,0,0,37.51129758,0,,2018-08-01
세월보건진료소,Y,0,07:00~22:00,양평군 보건소,0,0,,경기도 양평군 청운면 비룡리55번지,1,공중화장실,0,127.4941592,0,경기도 양평군 강상면 세월길 139-1,0,0,37.43747373,0,,2018-08-01
수능~서후경계(우),N,0,06:00~22:00,서종면,1,0,,경기도 양평군 용문면 신점리 산 65,0,공중화장실,1,127.5860543,0,경기도 양평군 서종면 서후리산 1번지 1호,0,0,37.56527962,2,,2018-08-01
수능1리체육공원,N,0,05:00~24:00,서종면,1,0,,경기도 양평군 용문면 조현리 179-2,1,공중화장실,1,127.3795416,0,경기도 양평군 서종면 황순원로 224-18,0,0,37.59283667,0,,2018-08-01
수능2리체육공원,N,0,연중무휴,서종면,1,0,,경기도 양평군 용문면 조현리174번지,1,공중화장실,1,127.3933039,0,경기도 양평군 서종면 수능능곡길 39-9,0,0,37.5847476,0,,2018-08-01
수입초등학교,N,0,08:00~18:00,수입초등학교,3,0,,경기도 양평군 용문면 중원리706번지 1000호,9,공중화장실,5,127.375739,0,경기도 양평군 서종면 무드리2길 20,0,0,37.64453282,1,,2018-08-01
수풍숲,N,0,연중무휴,지평면,0,0,,경기도 양평군 용문면 중원리산 55번지,1,공중화장실,1,127.6963489,0,경기도 양평군 지평면 못저리길97번길 2-6,0,0,37.41731104,0,,2018-08-01
순환작업활동시설,N,0,08:00~18:00,순환작업활동시설,5,0,,경기도 양평군 지평면 지평리553번지,5,공중화장실,5,127.5410437,0,경기도 양평군 양평읍 대흥로 60,0,0,37.48653878,2,,2018-08-01
쉐르빌온천호텔,N,0,09:00~18:00,쉐르빌온천호텔,2,0,,경기도 양평군 지평면 지평리502번지 2호,2,공중화장실,3,127.5308647,0,경기도 양평군 개군면 신내길7번길 37,0,0,37.4682406,0,,2018-08-01
승리주유소 화장실,N,0,07:00~22:00,승리주유소,1,0,,경기도 양평군 지평면 일신리674번지,1,공중화장실,2,127.457151,0,경기도 양평군 양평읍 경강로 1580,0,0,37.50499245,0,,2018-08-01
시온의집,N,0,06:00~22:00,시온의집,5,0,,경기도 양평군 청운면 용두리 629-6,10,공중화장실,5,127.6525083,0,경기도 양평군 지평면 망미리221번지 1호,0,0,37.43999969,2,,2018-08-01
신내주유소,N,0,09:00~18:00,신내주유소,2,0,,경기도 양평군 청운면 여물리 112-1,2,공중화장실,2,127.525442,0,경기도 양평군 양평읍 샘뜰길 57,0,0,37.46870453,0,,2018-08-01
신내천(빙상경기장),Y,0,09:00~18:00,양평읍,1,0,031-772-1024,경기도 양평군 청운면 용두리625번지 1호,1,공중화장실,1,127.5437873,0,경기도 양평군 양평읍 원덕리 387,0,0,37.46696369,0,,2018-08-01
신덕주유소,Y,0,07:00~22:00,서종면,1,0,,경기도 양평군 양평읍 창대리 산 23,1,공중화장실,1,127.3980669,0,경기도 양평군 강하면 강남로 78,0,0,37.49086601,0,,2018-08-01
신론보건진료소,N,0,연중무휴,양평군 보건소,1,0,031-773-9643,경기도 양평군 양동면 삼산리248번지,1,공중화장실,1,127.7645826,0,경기도 양평군 청운면 신론로 221,0,0,37.5676857,0,,2018-08-01
신애주유소,N,0,연중무휴,신애주유소,1,0,,경기도 양평군 용문면 중원리 706,1,공중화장실,1,127.4850004,0,경기도 양평군 양평읍 마유산로 324,0,0,37.51837831,0,,2018-08-01
신원역,N,0,06:00~18:00,철도청,2,0,,경기도 양평군 용문면 연수리 산 61-1,5,공중화장실,3,127.3730597,0,경기도 양평군 양서면 신원역길 7,0,0,37.525528,0,,2018-08-01
신청운주유소,N,0,연중무휴,신청운주유소,2,0,031-774-5164,경기도 양평군 강상면 병산리 30-1,2,공중화장실,2,127.704678,0,경기도 양평군 청운면 용두로 81,0,0,37.55035964,0,,2018-08-01
실내체육관,N,0,09:00~18:00,양평군 평생교육센터,2,0,,경기도 양평군 옥천면 옥천리869번지 2호,2,공중화장실,4,127.4857386,0,경기도 양평군 양평읍 마유산로 11,0,0,37.49683065,1,,2018-08-01
실로암평화의집,N,0,06:00~22:00,실로암평화의집,5,0,,경기도 양평군 지평면 수곡리199번지 1호,10,공중화장실,5,127.6043129,0,경기도 양평군 지평면 고재길 154,0,0,37.43104048,2,,2018-08-01
쌍둥이주유소,N,0,09:00~21:00,쌍둥이주유소,0,0,,,1,공중화장실,3,127.4183181,0,경기도 양평군 양서면 경강로 1197,0,0,37.51631594,0,,2018-08-01
아세아연합신학대학교(도서관외),N,0,08:00~20:00,아세아연합신학대학교,23,0,,경기도 양평군 옥천면 아신리산 151번지 1호,31,공중화장실,38,127.4289306,0,경기도 양평군 옥천면 경강로 1276,0,0,37.51121788,3,,2018-08-01
아세아연합신학대학교(본관),N,0,08:00~20:00,아세아연합신학대학교,7,0,,경기도 양평군 옥천면 아신리산 151번지 1호,11,공중화장실,11,127.4289306,0,경기도 양평군 옥천면 경강로 1276,0,0,37.51121788,3,,2018-08-01
안식관,N,0,06:00~22:00,안식관,1,0,,경기도 양평군 용문면 신점리563번지,2,공중화장실,1,127.5822862,0,경기도 양평군 용문면 도매기길 47,0,0,37.5418438,0,,2018-08-01
양근주유소,N,0,연중무휴,양근주유소,3,0,,,2,공중화장실,2,127.4908277,0,경기도 양평군 양평읍 마유산로 67,0,0,37.49895399,0,,2018-08-01
양동농협주유소,N,0,07:00~22:00,양평농협주유소,1,0,,경기도 양평군 양동면 쌍학리425번지 1호,1,공중화장실,1,127.747393,0,경기도 양평군 양동면 여양3로 661,0,0,37.4048791,0,,2018-08-01
양동면사무소,N,0,09:00~18:00,양동면사무소,4,0,,,8,공중화장실,4,127.7546882,0,경기도 양평군 양동면 학둔지아래길 93,0,0,37.41919108,0,,2018-08-01
양동보건지소,N,0,09:00~18:00,양평군 보건소,1,0,,경기도 양평군 양동면 석곡리160번지 1호,2,공중화장실,2,127.7513907,0,경기도 양평군 양동면 학둔지아래길 26,0,0,37.42472259,1,,2018-08-01
양동보건지소,N,0,09:00~18:00,양평군 보건소,1,0,,경기도 양평군 양동면 쌍학리 181번지 3호,2,공중화장실,2,127.7550204,0,경기도 양평군 양동면 학둔지아래길 95,0,0,37.41897632,0,,2018-08-01
양동역,N,0,05:00~23:00,철도청,1,0,,경기도 양평군 양동면 쌍학리223번지 2호,3,공중화장실,1,127.7544825,0,경기도 양평군 양동면 양동역길 19,0,0,37.42030242,2,,2018-08-01
양동주민자치센터,N,0,연중무휴,양동면,9,0,,,9,공중화장실,12,127.7511868,0,경기도 양평군 양동면 학둔지아래길 20,0,0,37.42512032,0,,2018-08-01
양동주유소 화장실,N,0,07:00~22:00,양동주유소,1,0,,경기도 양평군 양동면 쌍학리184번지 29호,2,공중화장실,2,127.7552317,0,경기도 양평군 양동면 학둔지아래길 108,0,0,37.41796586,0,,2018-08-01
양동중학교,N,0,08:00~18:00,양동중학교,7,0,,경기도 양평군 양동면 쌍학리215번지 2호,13,공중화장실,13,127.7556864,0,경기도 양평군 양동면 쌍학리215번지 2호,0,0,37.42095066,6,,2018-08-01
양동체육공원 화장실,N,0,연중무휴,양동면,3,0,,경기도 양평군 양동면 쌍학리 45,8,공중화장실,2,127.7542679,0,경기도 양평군 양동면 원양2로 832,0,0,37.40656536,0,,2018-08-01
양동초등학교,N,0,08:00~18:00,양동초등학교,4,0,,경기도 양평군 양동면 석곡리190번지,11,공중화장실,7,127.7498597,0,경기도 양평군 양동면 양동로 1671,0,0,37.43070412,3,,2018-08-01
양서119지역대,Y,0,연중무휴,양서119지역대,0,0,,,1,개방화장실,0,127.3180759,0,경기도 양평군 양서면 두물머리길8번길 49,0,0,37.54273214,0,,2018-08-01
양서농협앞,N,0,09:00~18:00,양서시장 상인회,1,0,,,1,개방화장실,2,127.3186279,0,경기도 양평군 양서면 양수로 160,0,0,37.54482096,0,,2018-08-01
양서다목적복지회관1층,N,0,연중무휴,양서면사무소,1,0,,,8,공중화장실,3,127.3170288,0,경기도 양평군 양서면 양수로171번길 10,0,0,37.54450812,2,,2018-08-01
양서다목적복지회관2층,N,0,연중무휴,양서면사무소,1,0,,,8,공중화장실,3,127.3170288,0,경기도 양평군 양서면 양수로171번길 10,0,0,37.54450812,2,,2018-08-01
양서면복지회관2층,N,0,07:00~22:00,양서면사무소,2,0,,,1,공중화장실,2,127.3233071,0,경기도 양평군 양서면 양수로 110,0,0,37.5425053,0,,2018-08-01
양서면복지회관3층,N,0,연중무휴,양서면사무소,1,0,,,1,공중화장실,2,127.3233071,0,경기도 양평군 양서면 양수로 110,0,0,37.5425053,0,,2018-08-01
양서면사무소1층,N,0,06:00~22:00,양서면,2,0,,,2,개방화장실,3,127.3260518,0,경기도 양평군 양서면 목왕로 31,0,0,37.54397899,1,,2018-08-01
양서면사무소2층,N,0,06:00~22:00,양서면,2,0,,,2,개방화장실,3,127.3260518,0,경기도 양평군 양서면 목왕로 31,0,0,37.54397899,1,,2018-08-01
양서문화체육공원(입구),N,0,06:00~18:00,양서면,5,0,,경기도 양평군 양서면 용담리 425,10,간이화장실,6,127.3236393,0,경기도 양평군 양서면 용담리 425,0,0,37.53976897,0,,2018-08-01
양서문화체육공원(후문),N,0,09:00~18:00,양서면,2,0,,경기도 양평군 양서면 용담리 425,5,간이화장실,2,127.3236393,0,경기도 양평군 양서면 용담리 425,0,0,37.53976897,0,,2018-08-01
양서우체국1층,Y,0,07:00~22:00,양서우체국,0,0,,,1,공중화장실,1,127.3175374,0,경기도 양평군 양서면 양수로152번길 26,0,0,37.54596276,0,,2018-08-01
양서우체국2층,Y,0,07:00~22:00,양서우체국,0,0,,,1,공중화장실,1,127.3175374,0,경기도 양평군 양서면 양수로152번길 26,0,0,37.54596276,0,,2018-08-01
양서주유소,N,0,09:00~21:00,양서주유소,1,0,,,1,공중화장실,2,127.3951366,0,경기도 양평군 양서면 경강로 973,0,0,37.50986893,0,,2018-08-01
양서체육공원,N,0,09:00~18:00,양서면,1,0,,,7,개방화장실,2,127.316712,0,경기도 양평군 양서면 두물머리길68번길 7,0,0,37.53809027,0,,2018-08-01
양서친환경도서관1층,N,0,연중무휴,양서도서관,2,0,,,3,공중화장실,2,127.3233071,0,경기도 양평군 양서면 양수로 110,0,0,37.5425053,0,,2018-08-01
양서친환경도서관2층,N,0,06:00~22:00,양서도서관,2,0,,,3,공중화장실,2,127.3233071,0,경기도 양평군 양서면 양수로 110,0,0,37.5425053,0,,2018-08-01
양서친환경도서관3층,N,0,07:00~22:00,양서도서관,2,0,,,3,공중화장실,2,127.3233071,0,경기도 양평군 양서면 양수로 110,0,0,37.5425053,0,,2018-08-01
양서파출소1층,Y,0,연중무휴,양서파출소,0,0,,,0,개방화장실,1,127.3192163,0,경기도 양평군 양서면 양수로152번길 6,0,0,37.54481217,0,,2018-08-01
양서파출소2층,Y,0,07:00~22:00,양서파출소,0,0,,,0,개방화장실,1,127.3192163,0,경기도 양평군 양서면 양수로152번길 6,0,0,37.54481217,0,,2018-08-01
양수리전통시장,N,0,연중무휴,양수리전통시장 상인회,3,0,,경기도 양평군 양서면 양수리 557-10,4,개방화장실,3,127.3198742,0,경기도 양평군 양서면 양수리 557-10,0,0,37.5451888,0,,2018-08-01
양수역,N,0,06:00~18:00,철도청,4,0,,,8,공중화장실,6,127.3288432,1,경기도 양평군 양서면 목왕로 55-10,0,0,37.54575162,0,,2018-08-01
양수장례식장앞,N,0,연중무휴,양서면,1,0,,경기도 양평군 양서면 양수리 1152,2,개방화장실,1,127.3199112,0,경기도 양평군 양서면 양수리 1152,0,0,37.5421974,0,,2018-08-01
양수주유소,N,0,06:00~18:00,양수주유소,1,0,,,3,공중화장실,3,127.3244703,0,경기도 양평군 양서면 양수로 94,0,0,37.54145695,0,,2018-08-01
양일고등학교(별관),N,0,08:00~18:00,양일고등학교,1,0,,경기도 양평군 양평읍 양근리산 37번지,3,공중화장실,2,127.4943384,0,경기도 양평군 양평읍 양근리산 37번지,0,0,37.49423253,0,,2018-08-01
양일고등학교(본관),N,0,08:00~18:00,양일고등학교,5,0,,경기도 양평군 양평읍 양근리산 37번지,13,공중화장실,12,127.4943384,0,경기도 양평군 양평읍 양근리산 37번지,0,0,37.49423253,2,,2018-08-01
양일중학교(본관),N,0,08:00~18:00,양일중학교,20,0,,경기도 양평군 양평읍 양근리산 37번지,30,공중화장실,30,127.4943384,0,경기도 양평군 양평읍 양근리산 37번지,0,0,37.49423253,4,,2018-08-01
양일중학교(정성관),N,0,08:00~18:00,양일중학교,3,0,,경기도 양평군 양평읍 양근리산 37번지,4,공중화장실,3,127.4943384,0,경기도 양평군 양평읍 양근리산 37번지,0,0,37.49423253,0,,2018-08-01
양평LPG충전소,N,0,07:00~22:00,양평LPG충전소,2,0,,경기도 양평군 양평읍 공흥리696번지 3호,2,공중화장실,2,127.5018997,0,경기도 양평군 양평읍 경강로 2004,0,0,37.50144107,0,,2018-08-01
양평가스충전소,N,0,연중무휴,양평가스충전소,2,0,,,2,공중화장실,3,127.5018997,0,경기도 양평군 양평읍 경강로 2004,0,0,37.50144107,0,,2018-08-01
양평고등학교,N,0,08:00~18:00,양평고등학교,61,0,,경기도 양평군 양평읍 양근리237번지 1호,87,공중화장실,43,127.4960397,0,경기도 양평군 양평읍 양근로 260,0,0,37.48542445,1,,2018-08-01
양평공설공원묘지,N,0,연중무휴,양평읍,2,0,,,4,개방화장실,2,127.5045334,0,경기도 양평군 양평읍 중앙로111번길 54,0,0,37.49821509,0,,2018-08-01
양평공업고등학교(구관),N,0,09:00~18:00,양평공업고등학교,8,0,,경기도 양평군 양서면 국수리330번지 12호,16,공중화장실,8,127.4007427,0,경기도 양평군 양서면 대심상심길 13,0,0,37.50999421,0,,2018-08-01
양평공업고등학교(신관),N,0,09:00~18:00,양평공업고등학교,9,0,,경기도 양평군 양서면 국수리330번지 12호,21,공중화장실,15,127.4007427,0,경기도 양평군 양서면 대심상심길 13,0,0,37.50999421,6,,2018-08-01
양평공업고등학교(실습관),N,0,09:00~18:00,양평공업고등학교,12,0,,경기도 양평군 양서면 국수리330번지 12호,6,공중화장실,12,127.4007427,0,경기도 양평군 양서면 대심상심길 13,0,0,37.50999421,0,,2018-08-01
양평교육청(별관동),N,0,08:00~18:00,양평교육청,4,0,,경기도 양평군 양평읍 양근리491번지 1호,6,공중화장실,8,127.4852873,0,경기도 양평군 양평읍 양근강변길 126,0,0,37.49419798,0,,2018-08-01
양평교육청(본관동),N,0,08:00~18:00,양평교육청,6,0,,경기도 양평군 양평읍 양근리491번지 1호,8,공중화장실,7,127.4852873,0,경기도 양평군 양평읍 양근강변길 126,0,0,37.49419798,2,,2018-08-01
양평군 수도사업소,N,0,09:00~18:00,수도사업소,4,0,,경기도 양평군 양평읍 회현리 306-1,4,공중화장실,6,127.5059657,0,경기도 양평군 양평읍 충신로189번길 81,0,0,37.45437349,1,,2018-08-01
양평군 장애인복지관,N,0,07:00~22:00,양평군 장애인복지관,6,0,031-773-9080,,9,공중화장실,12,127.5037773,0,경기도 양평군 양평읍 중앙로111번길 36-1,0,0,37.49677312,4,,2018-08-01
양평군 환경사업소,N,0,연중무휴,양평군 환경사업소,2,0,,,1,공중화장실,2,127.4491871,0,경기도 양평군 옥천면 경강로 1496,0,0,37.50920003,0,,2018-08-01
양평군립도서관,N,0,09:00~18:00,양평군 평생교육센터,8,0,,경기도 양평군 양평읍 양근리257번지 3호,7,공중화장실,8,127.4943424,0,경기도 양평군 양평읍 양근로 240-9,0,0,37.48591089,1,,2018-08-01
양평군립미술관,N,0,09:00~18:00,양평군수,8,0,,경기도 양평군 양평읍 양근리543번지,16,공중화장실,10,127.4839988,0,경기도 양평군 양평읍 문화복지길 2,0,0,37.49710088,1,,2018-08-01
양평군보건소,N,0,09:00~18:00,양평군 보건소,8,0,,경기도 양평군 양평읍 양근리533번지 1호,12,공중화장실,14,127.4866808,0,경기도 양평군 양평읍 마유산로 17,0,0,37.4970358,2,,2018-08-01
양평군보훈회관,N,0,연중무휴,양평읍,1,0,,,1,개방화장실,1,127.4940076,0,경기도 양평군 양평읍 양근로 240-8,0,0,37.48657903,0,,2018-08-01
양평군청소년문화체육센터,N,0,07:00~22:00,양평군 농업기술센터,6,0,,경기도 양평군 양평읍 백안리1번지 1호,6,공중화장실,8,127.5335568,0,경기도 양평군 양평읍 백안리1번지 1호,0,0,37.51489653,4,,2018-08-01
양평길병원,N,0,09:00~18:00,양평길병원,13,0,031-770-5000,,15,공중화장실,10,127.5034824,0,경기도 양평군 양평읍 중앙로 129,0,0,37.49394885,4,,2018-08-01
양평농협주유소,N,0,07:00~22:00,양평농협주유소,1,0,,,1,공중화장실,1,127.5078693,0,경기도 양평군 양평읍 중앙로 178,0,0,37.49118022,0,,2018-08-01
양평동초등학교,N,0,08:00~18:00,양평동초등학교,15,0,,경기도 양평군 양평읍 창대리639번지,38,공중화장실,24,127.507103,0,경기도 양평군 양평읍 창대길 20-8,0,0,37.48822103,5,,2018-08-01
양평만남의광장 화장실,N,0,05:00~24:00,양평만남의광장 휴게소,4,0,,경기도 양평군 양서면 국수리391번지 5호,14,공중화장실,8,127.3941857,0,경기도 양평군 양서면 경강로 962,0,0,37.50885218,0,,2018-08-01
양평물맑은시장 화장실,N,0,연중무휴,양평물맑은시장 상인회,4,0,031-771-0690,,5,개방화장실,5,127.4925618,1,경기도 양평군 양평읍 양평장터길 15,0,0,37.49093149,0,,2018-08-01
양평물맑은시장쉼터 화장실,N,0,09:00~18:00,양평물맑은시장 상인회,1,0,031-771-0690,,0,개방화장실,0,127.4916413,0,경기도 양평군 양평읍 양평시장1길 12,0,0,37.48989016,2,,2018-08-01
양평미리내캠프,N,0,09:00~18:00,(주)미리내,1,0,,,2,개방화장실,5,127.6479954,0,경기도 양평군 지평면 월산저수지길 21,0,0,37.48115683,0,Jan-84,2018-08-01
양평생활체육공원(배드민턴장),N,0,연중무휴,양평읍,3,0,031-772-1024,경기도 양평군 양평읍 양근리 산 20-2,5,개방화장실,3,127.49189,0,경기도 양평군 양평읍 양근리 산 20-2,0,0,37.50160931,3,,2018-08-01
양평생활체육공원(테니스장),N,0,06:00~22:00,양평읍,1,0,031-772-1024,경기도 양평군 양평읍 양근리 산 20-2,1,개방화장실,1,127.49189,0,경기도 양평군 양평읍 양근리 산 20-2,0,0,37.50160931,0,,2018-08-01
양평송도병원,N,0,09:00~18:00,양평송도병원,2,0,,,2,공중화장실,2,127.4191634,0,경기도 양평군 강하면 사호1길 51,0,0,37.49757217,0,,2018-08-01
양평역,N,0,연중무휴,철도청,5,0,031-774-6841,,10,공중화장실,9,127.4913659,0,경기도 양평군 양평읍 역전길 30,0,0,37.49272405,2,,2018-08-01
양평우체국,N,0,09:00~18:00,양평우체국,1,0,,경기도 양평군 양평읍 양근리321번지 2호,2,공중화장실,1,127.4905307,0,경기도 양평군 양평읍 해오름길 15,0,0,37.48882079,1,,2018-08-01
양평유스호스텔,N,0,07:00~22:00,양평유스호스텔,17,0,,경기도 양평군 단월면 석산리1번지,19,공중화장실,24,127.6333043,0,경기도 양평군 단월면 석산리1번지,0,0,37.63918236,0,,2018-08-01
양평읍사무소,N,0,연중무휴,양평읍,8,0,,,13,개방화장실,6,127.4935136,0,경기도 양평군 양평읍 양근강변길 7,0,0,37.48642973,2,,2018-08-01
양평장례식장,N,0,연중무휴,양평읍,6,0,,,3,개방화장실,6,127.5043731,0,경기도 양평군 양평읍 중앙로111번길 52,0,0,37.4972463,0,,2018-08-01
양평주유소,N,0,연중무휴,양평주유소,1,0,,,1,공중화장실,2,127.4825896,0,경기도 양평군 양평읍 양근로 82,0,0,37.49671741,0,,2018-08-01
양평중학교(별관),N,0,08:00~18:00,양평중학교,8,0,,경기도 양평군 양평읍 공흥리714번지 7호,16,공중화장실,12,127.4970902,0,경기도 양평군 양평읍 양평중학교길 29,0,0,37.49857461,0,,2018-08-01
양평중학교(본관),N,0,08:00~18:00,양평중학교,9,0,,경기도 양평군 양평읍 공흥리714번지 7호,26,공중화장실,21,127.4970902,0,경기도 양평군 양평읍 양평중학교길 29,0,0,37.49857461,2,,2018-08-01
양평천사의집,N,0,09:00~18:00,양평천사의집,1,0,,경기도 양평군 양서면 신원리182번지 1호,4,공중화장실,4,127.3786682,0,경기도 양평군 양서면 신원1길 199,0,0,37.53574907,2,,2018-08-01
양평초등학교,N,0,08:00~18:00,양평초등학교,29,0,,경기도 양평군 양평읍 양근리491번지 9호,67,공중화장실,37,127.4866807,0,경기도 양평군 양평읍 양근로 142,0,0,37.49284796,5,,2018-08-01
양평충전소,N,0,연중무휴,양평충전소,1,0,,,1,공중화장실,2,127.4683744,0,경기도 양평군 양평읍 경강로 1683,0,0,37.50349968,0,,2018-08-01
양평터미널,N,0,06:00~22:00,금강운수,3,0,031-772-2341,,5,공중화장실,5,127.5018662,0,경기도 양평군 양평읍 시민로 91,0,0,37.49103289,0,,2018-08-01
양평프라자주유소,N,0,07:00~22:00,양평프라자주유소,1,0,,경기도 양평군 옥천면 아신리368번지 1호,1,공중화장실,2,127.4427213,0,경기도 양평군 옥천면 경강로 1422,0,0,37.511358,0,,2018-08-01
여기가좋겠네 화장실,N,0,07:00~22:00,여기가좋겠네,7,0,,경기도 양평군 용문면 삼성리220번지 17호,14,공중화장실,15,127.5782135,0,경기도 양평군 용문면 경강로 2758-1,0,0,37.48447422,0,,2018-08-01
여성회관1층,N,0,07:00~18:00,양평군 평생학습과,2,0,,,2,공중화장실,2,127.4851363,0,경기도 양평군 양평읍 마유산로 3,0,0,37.49742057,0,Jan-17,2018-08-01
여성회관2층,N,0,09:00~18:00,양평군 평생학습과,2,0,,,3,공중화장실,2,127.4851363,0,경기도 양평군 양평읍 마유산로 3,0,0,37.49742057,0,,2018-08-01
여성회관3층,N,0,09:00~18:00,양평군 평생학습과,2,0,,,3,공중화장실,3,127.4851363,0,경기도 양평군 양평읍 마유산로 3,0,0,37.49742057,0,,2018-08-01
여성회관4층,N,0,08:00~21:00,양평군 평생학습과,2,0,,,3,공중화장실,3,127.4851363,0,경기도 양평군 양평읍 마유산로 3,0,0,37.49742057,0,Jan-17,2018-08-01
여성회관5층,N,0,연중무휴,양평군 평생학습과,2,0,,,5,공중화장실,3,127.4851363,0,경기도 양평군 양평읍 마유산로 3,0,0,37.49742057,0,,2018-08-01
연동 복지원 1,N,0,09:00~18:00,양평군,2,0,,경기도 양평군 단월면 부안리162번지,3,공중화장실,2,127.6762637,0,경기도 양평군 단월면 소부록길48번길 13,0,0,37.56826431,1,,2018-08-01
연동 복지원 2,N,0,09:00~18:00,양평군,1,0,,경기도 양평군 단월면 부안리163번지,1,공중화장실,1,127.6759652,0,경기도 양평군 단월면 소부록길48번길 12,0,0,37.56829125,0,,2018-08-01
연수2리마을회관옆,N,0,06:00~22:00,용문면,1,0,,경기도 양평군 용문면 연수리 541,1,공중화장실,1,127.5619055,0,경기도 양평군 용문면 학골길 1,0,0,37.50988889,0,,2018-08-01
영진주유소,N,0,07:00~22:00,영진주유소,2,0,,경기도 양평군 양동면 석곡리406번지 3호,2,공중화장실,2,127.7438925,0,경기도 양평군 양동면 양동로 1568,0,0,37.43784167,0,,2018-08-01
예담인근,N,0,06:00~22:00,용문면,1,0,,경기도 양평군 용문면 화전리 1,1,공중화장실,1,127.6171071,0,경기도 양평군 용문면 화전리 1,0,0,37.47559908,0,,2018-08-01
오빈역,N,0,07:00~22:00,철도청,4,0,031-774-8874,,8,공중화장실,5,127.4735332,0,경기도 양평군 양평읍 덕바위길 58,0,0,37.50592262,0,,2018-08-01
오빈주유소 화장실,N,0,07:00~22:00,오빈주유소,2,0,,경기도 양평군 양평읍 오빈리448번지 6호,3,공중화장실,2,127.4638289,0,경기도 양평군 양평읍 경강로 1638,0,0,37.50437897,0,,2018-08-01
오커빌리지(캠핑장),N,0,09:00~18:00,오커빌리지,4,0,,경기도 양평군 용문면 연수리527번지,10,공중화장실,7,127.5642986,0,경기도 양평군 용문면 연수리527번지,0,0,37.50926481,3,,2018-08-01
옥천119지역대,Y,0,09:00~18:00,옥천면,0,0,,,1,공중화장실,1,127.4557388,0,경기도 양평군 옥천면 옥천체육공원길 68,0,0,37.51975263,0,,2018-08-01
옥천고읍내 도서관,N,0,09:00~18:00,옥천면,3,0,,,3,개방화장실,3,127.4560503,0,경기도 양평군 옥천면 옥천길 21,0,0,37.51814766,0,,2018-08-01
옥천레포츠공원,N,0,연중무휴,옥천레포츠공원,3,0,,,5,개방화장실,4,127.4557178,0,경기도 양평군 옥천면 옥천체육공원길 40,0,0,37.52002301,0,,2018-08-01
옥천면 다목적복지회관,N,0,연중무휴,옥천면,6,0,,,8,개방화장실,10,127.4585173,0,경기도 양평군 옥천면 옥천체육공원길 34-1,0,0,37.52201239,0,,2018-08-01
옥천면사무소1층,N,0,09:00~18:00,옥천면,1,0,,,2,개방화장실,2,127.4560503,0,경기도 양평군 옥천면 옥천길 21,0,0,37.51814766,0,,2018-08-01
옥천면사무소2층,N,0,09:00~18:00,옥천면,1,0,,,2,개방화장실,2,127.4560503,0,경기도 양평군 옥천면 옥천길 21,0,0,37.51814766,0,,2018-08-01
옥천초등학교,N,0,08:00~18:00,옥천초등학교,10,0,,경기도 양평군 옥천면 옥천리549번지 1호,24,공중화장실,16,127.4593938,0,경기도 양평군 옥천면 옥천길 51,0,0,37.5195835,1,,2018-08-01
옥천파출소,N,0,07:00~22:00,옥천파출소,1,0,,,1,공중화장실,1,127.4569658,0,경기도 양평군 옥천면 옥천길 27,0,0,37.5183964,0,,2018-08-01
옥천휴게소 화장실,N,0,07:00~22:00,옥천휴게소,1,0,,경기도 양평군 옥천면 아신리 384-18,1,공중화장실,2,127.4472731,0,경기도 양평군 옥천면 고읍로 7,0,0,37.5121914,0,,2018-08-01
옥현주유소 화장실,N,0,07:00~22:00,옥현주유소,1,0,,경기도 양평군 지평면 옥현리528번지 2호,2,공중화장실,2,127.6224918,0,경기도 양평군 지평면 지평로 748,0,0,37.44711011,0,,2018-08-01
옹달샘,N,0,09:00~18:00,옹달샘,1,0,,경기도 양평군 양동면 삼산리247번지,2,공중화장실,2,127.7750731,0,경기도 양평군 양동면 양동금곡4길 108-22,0,0,37.41230891,4,,2018-08-01
외갓집체험마을,N,0,08:00~20:00,외갓집체험마을,3,0,,경기도 양평군 청운면 신론리284번지 5호,7,공중화장실,4,127.774373,0,경기도 양평군 청운면 신론로 334,0,0,37.56305214,2,,2018-08-01
용두휴게소,N,0,07:00~22:00,용두휴게소,12,0,031-771-6003,,25,공중화장실,20,127.7227029,0,경기도 양평군 청운면 설악로 167,0,0,37.56584843,0,,2018-08-01
용머리주유소,N,0,연중무휴,용머리주유소,1,0,,,2,개방화장실,1,127.7108483,0,경기도 양평군 청운면 경강로 4220,0,0,37.54709354,0,,2018-08-01
용머리휴게소,N,0,07:00~22:00,용머리휴게소,28,0,031-774-9321,,13,개방화장실,12,127.7108483,0,경기도 양평군 청운면 경강로 4220,0,0,37.54709354,0,,2018-08-01
용문가스충전소,N,0,07:00~22:00,용문가스충전소,1,0,,경기도 양평군 용문면 광탄리434번지 1호,2,공중화장실,1,127.6255536,0,경기도 양평군 용문면 광탄리434번지 1호,0,0,37.51130247,0,,2018-08-01
용문국민체육센터,N,0,09:00~18:00,용문국민체육센터,3,0,,경기도 양평군 용문면 마룡리 272,18,공중화장실,3,127.6060103,0,경기도 양평군 용문면 용문체육공원길 55,0,0,37.49186723,0,,2018-08-01
용문도서관,N,0,07:00~22:00,양평군수,2,0,,경기도 양평군 용문면 다문리343번지,3,공중화장실,5,127.5962168,0,경기도 양평군 용문면 용문로 395,0,0,37.48717783,0,,2018-08-01
용문면사무소,N,0,08:00~23:00,용문면,1,0,,경기도 양평군 용문면 344번지 2호,2,공중화장실,1,127.5957114,0,경기도 양평군 용문면 용문로 389,0,0,37.48674429,2,,2018-08-01
용문보건지소,N,0,09:00~18:00,양평군 보건소,1,0,,경기도 양평군 용문면 다문리348번지 1호,2,공중화장실,1,127.596201,0,경기도 양평군 용문면 용문로 391,0,0,37.48689319,0,,2018-08-01
용문산주유소 화장실,N,0,07:00~22:00,용문산주유소,1,0,,경기도 양평군 용문면 마룡리306번지 4호,1,공중화장실,3,127.6002475,0,경기도 양평군 용문면 용문로 450,0,0,37.4906785,0,,2018-08-01
용문시장 화장실,N,0,07:00~22:00,용문면,4,0,,경기도 양평군 용문면 다문리 626-2,2,공중화장실,1,127.5913656,0,경기도 양평군 용문면 다문리 626-2,0,0,37.48510109,0,,2018-08-01
용문역 화장실,N,0,05:00~24:00,철도청,5,0,,경기도 양평군 용문면 다문리736번지 13호,20,공중화장실,13,127.5945014,0,경기도 양평군 용문면 용문역길 21,0,0,37.48245084,2,,2018-08-01
용문우체국,N,0,09:00~18:00,용문우체국,1,0,,경기도 양평군 용문면 다문리786번지 9호,1,공중화장실,2,127.5900155,0,경기도 양평군 용문면 용문로 315,0,0,37.48191831,0,,2018-08-01
용문주유소,N,0,07:00~22:00,용문주유소,2,0,,경기도 양평군 용문면 광탄리434번지 6호,2,공중화장실,2,127.6252164,0,경기도 양평군 용문면 경강로 3299,0,0,37.51047174,0,,2018-08-01
용문체육공원 화장실,N,0,07:00~22:00,용문면,4,0,,경기도 양평군 용문면 마룡리131번지,8,공중화장실,5,127.6063931,0,경기도 양평군 용문면 마룡리131번지,0,0,37.49334289,4,,2018-08-01
용문휴게소,N,0,07:00~22:00,용문휴게소,6,0,,경기도 양평군 용문면 다문리409번지 15호,15,공중화장실,14,127.5933343,0,경기도 양평군 용문면 다문리409번지 15호,0,0,37.49441471,2,,2018-08-01
용천2리길옆,N,0,09:00~18:00,옥천면,1,0,,경기도 양평군 옥천면 용천리 441-1,2,공중화장실,2,127.4919151,0,경기도 양평군 옥천면 사나사길 122,0,0,37.52680104,0,,2018-08-01
용천주유소 화장실,N,0,07:00~22:00,용천주유소,1,0,,경기도 양평군 옥천면 용천리859번지 3호,1,공중화장실,2,127.4771319,0,경기도 양평군 옥천면 용천리859번지 3호,0,0,37.52758248,0,,2018-08-01
원덕리 간이화장실,Y,0,연중무휴,양평읍,2,0,031-772-1024,경기도 양평군 양평읍 원덕리 70,2,간이화장실,2,127.5538724,0,경기도 양평군 양평읍 원덕리 70,0,0,37.46540677,0,,2018-08-01
원덕역,N,0,09:00~18:00,철도청,4,0,031-771-4196,,10,공중화장실,5,127.5484819,0,경기도 양평군 양평읍 원덕흑천길 94-22,0,0,37.46899627,2,,2018-08-01
월드주유소,N,0,06:00~22:00,월드주유소,1,0,,,1,공중화장실,2,127.5329343,0,경기도 양평군 양평읍 중앙로 402,0,0,37.49098332,0,,2018-08-01
월드컵주유소 화장실,N,0,07:00~22:00,월드컵주유소,1,0,,경기도 양평군 양평읍 오빈리118번지 7호,1,공중화장실,1,127.4754141,0,경기도 양평군 양평읍 경강로 1747,0,0,37.50219935,0,,2018-08-01
은행나무주유소 화장실,N,0,07:00~22:00,은행나무주유소,1,0,,경기도 양평군 용문면 덕촌리16번지,2,공중화장실,2,127.6041591,0,경기도 양평군 용문면 용문산로 105,0,0,37.50742785,0,,2018-08-01
은혜의집,N,0,05:00~24:00,은혜의집,2,0,031-771-1777,,2,공중화장실,2,127.5414938,0,경기도 양평군 양평읍 대흥로 106-13,0,0,37.48311292,0,,2018-08-01
일신보건진료소,N,0,연중무휴,양평군 보건소,1,0,,,1,공중화장실,1,127.6852312,0,경기도 양평군 지평면 구둔영화체험길 8,0,0,37.43443014,0,,2018-08-01
일흥주유소,N,0,06:00~18:00,일흥주유소,2,0,,,4,공중화장실,3,127.418228,0,경기도 양평군 양서면 경강로 1196,0,0,37.51557023,0,,2018-08-01
전투전적비,N,0,06:00~22:00,지평면,2,0,,경기도 양평군 지평면 지평리385번지 3호,2,공중화장실,4,127.6373334,0,경기도 양평군 지평면 지평로 357,0,0,37.47869205,1,,2018-08-01
정배1리마을회관앞,Y,0,연중무휴,서종면,0,0,,,1,공중화장실,1,127.419371,0,경기도 양평군 서종면 중미산로 755,0,0,37.60250819,0,,2018-08-01
정배2리시골여행입구,N,0,06:00~22:00,서종면,1,0,,경기도 양평군 서종면 정배리149번지 1호,1,공중화장실,1,127.428478,0,경기도 양평군 서종면 정배리149번지 1호,0,0,37.59894723,0,,2018-08-01
정배보건진료소,N,0,09:00~18:00,양평군 보건소,1,0,,,1,공중화장실,1,127.4261561,0,경기도 양평군 서종면 명덕길34번길 15-3,0,0,37.60480122,0,Dec-00,2018-08-01
제일(평화)주유소 화장실,N,0,07:00~22:00,제일(평화)주유소,1,0,,경기도 양평군 청운면 비룡리55번지,2,공중화장실,2,127.6960639,0,경기도 양평군 청운면 비룡리55번지,0,0,37.54305152,0,,2018-08-01
조계골중간,N,0,06:00~22:00,용문면,1,0,,경기도 양평군 용문면 신점리 산 65,1,공중화장실,1,127.5860543,0,경기도 양평군 용문면 신점리 산 65,0,0,37.56527962,0,,2018-08-01
조현보건진료소,N,0,09:00~18:00,양평군 보건소,1,0,,경기도 양평군 용문면 조현리183번지 6호,1,공중화장실,1,127.6135446,0,경기도 양평군 용문면 청용길 12,0,0,37.52213769,0,,2018-08-01
조현체육공원,N,0,06:00~22:00,용문면,1,0,,경기도 양평군 용문면 조현리 179-2,5,공중화장실,3,127.6146298,0,경기도 양평군 용문면 조현리 179-2,0,0,37.52260417,0,,2018-08-01
조현초등학교,N,0,08:00~18:00,조현초등학교,2,0,,경기도 양평군 용문면 조현리174번지,8,공중화장실,6,127.6160019,0,경기도 양평군 용문면 중원산로 157,0,0,37.52272676,4,,2018-08-01
중원계곡(초소옆),N,0,06:00~22:00,용문면,1,0,,경기도 양평군 용문면 중원리706번지 1000호,1,공중화장실,1,127.6222124,0,경기도 양평군 용문면 중원리706번지 1000호,0,0,37.53390971,0,,2018-08-01
중원계곡(초소위),N,0,06:00~22:00,용문면,1,0,,경기도 양평군 용문면 중원리산 55번지,1,공중화장실,1,127.6160121,0,경기도 양평군 용문면 중원리산 55번지,0,0,37.55367741,0,,2018-08-01
지게의집,N,0,09:00~18:00,지게의집,1,0,031-774-8338,,1,공중화장실,1,127.5410437,0,경기도 양평군 양평읍 대흥로 60,0,0,37.48653878,0,,2018-08-01
지평119지역대,N,0,07:00~22:00,지평119지역대,0,0,,,1,공중화장실,0,127.6393103,0,경기도 양평군 지평면 지평의병로116번길 1,0,0,37.47452598,0,,2018-08-01
지평고등학교,N,0,08:00~18:00,지평고등학교,17,0,,경기도 양평군 지평면 지평리553번지,24,공중화장실,12,127.6345572,0,경기도 양평군 지평면 지평로 418,0,0,37.47447231,8,,2018-08-01
지평레포츠공원,N,0,07:00~22:00,지평면,1,0,,,2,공중화장실,1,127.6329971,0,경기도 양평군 지평면 송정길 130,0,0,37.49001022,0,,2018-08-01
지평면사무소,N,0,07:00~22:00,지평면,2,0,,,2,공중화장실,3,127.6393103,0,경기도 양평군 지평면 지평의병로116번길 1,0,0,37.47452598,0,,2018-08-01
지평면종합복지관,N,0,연중무휴,지평면,1,0,,,2,공중화장실,1,127.6392829,0,경기도 양평군 지평면 지평의병로116번길 1-1,0,0,37.47397111,0,,2018-08-01
지평보건지소,N,0,연중무휴,양평군 보건소,2,0,,,2,공중화장실,2,127.638346,0,경기도 양평군 지평면 지평의병로116번길 7-1,0,0,37.47387166,0,,2018-08-01
지평시장,N,0,09:00~18:00,지평면,2,0,,,4,공중화장실,3,127.6380923,0,경기도 양평군 지평면 지평의병로116번길 11,0,0,37.47381537,0,,2018-08-01
지평역,N,0,연중무휴,철도청,2,0,,,3,공중화장실,2,127.6300422,0,경기도 양평군 지평면 지평역길 32,0,0,37.47637415,0,,2018-08-01
지평우체국,N,0,09:00~18:00,지평우체국,1,0,,,1,공중화장실,1,127.6356869,0,경기도 양평군 지평면 지평의병로 87,0,0,37.47545013,0,Jan-86,2018-08-01
지평의병 지평리전투기념관,N,0,09:00~18:00,지평면,1,0,,,1,공중화장실,2,127.6373334,0,경기도 양평군 지평면 지평로 357,0,0,37.47869205,1,,2018-08-01
지평주유소,N,0,09:00~18:00,지평주유소,1,0,,,0,공중화장실,2,127.6343478,0,경기도 양평군 지평면 지평로 239,0,0,37.4882154,0,,2018-08-01
지평체육공원,N,0,06:00~22:00,지평면,2,0,,,2,공중화장실,4,127.6329971,0,경기도 양평군 지평면 송정길 130,0,0,37.49001022,0,Jan-17,2018-08-01
지평초등학교,N,0,08:00~18:00,지평초등학교,18,0,,경기도 양평군 지평면 지평리502번지 2호,23,공중화장실,33,127.6380372,0,경기도 양평군 지평면 지평의병로 107,0,0,37.47584471,10,,2018-08-01
지평초등학교일신분교,N,0,08:00~18:00,지평초등학교일신분교,1,0,,경기도 양평군 지평면 일신리674번지,4,공중화장실,3,127.6867601,0,경기도 양평군 지평면 구둔영화체험길 17,0,0,37.43407168,1,,2018-08-01
지평파출소,N,0,09:00~18:00,지평파출소,1,0,,,1,공중화장실,1,127.6361153,0,경기도 양평군 지평면 지평의병로 91,0,0,37.47530006,0,Jan-86,2018-08-01
차차차휴게소,N,0,09:00~18:00,차차차휴게소,17,0,031-771-6931,,14,개방화장실,0,127.7490736,0,경기도 양평군 청운면 설악로 475,0,0,37.58013569,0,,2018-08-01
창인학교,N,0,09:00~18:00,창인학교,17,0,,,22,공중화장실,18,127.6826074,0,경기도 양평군 단월면 백동길 92,0,0,37.54548705,5,,2018-08-01
청운면사무소1층,N,0,연중무휴,청운면,2,0,031-770-3222,,2,공중화장실,2,127.7107226,0,경기도 양평군 청운면 용두로 170,0,0,37.55625546,1,,2018-08-01
청운면사무소2층,N,0,연중무휴,청운면,2,0,031-770-3222,,2,공중화장실,2,127.7107226,0,경기도 양평군 청운면 용두로 170,0,0,37.55625546,0,,2018-08-01
청운보건지소,N,0,연중무휴,양평군 보건소,2,0,031-770-3555,,2,공중화장실,2,127.7107226,0,경기도 양평군 청운면 용두로 170,0,0,37.55625546,0,,2018-08-01
청운시외버스터미널,N,0,07:00~22:00,청운시외버스터미널,2,0,031-770-3222,,2,개방화장실,2,127.7085195,0,경기도 양평군 청운면 용두로139번길 1,0,0,37.55449918,0,,2018-08-01
청운우체국,N,0,연중무휴,청운우체국,1,0,031-770-3227,,1,공중화장실,1,127.7098142,0,경기도 양평군 청운면 용두로 152,0,0,37.55498514,0,,2018-08-01
청운인성수련원,N,0,09:00~18:00,청운인성수련원,3,0,031-774-4301,,8,공중화장실,4,127.7747383,0,경기도 양평군 청운면 신론로 346,0,0,37.56160098,0,,2018-08-01
청운체육공원,N,0,09:00~21:00,청운면,3,0,031-770-3222,경기도 양평군 청운면 여물리 112-1,8,공중화장실,5,127.7021584,0,경기도 양평군 청운면 여물리 112-1,0,0,37.55294785,2,,2018-08-01
청운초등학교,N,0,08:00~18:00,청운초등학교,7,0,,경기도 양평군 청운면 용두리625번지 1호,16,공중화장실,8,127.7107226,0,경기도 양평군 청운면 용두로 170,0,0,37.55625546,1,,2018-08-01
충혼탑근처산중턱,N,0,09:00~18:00,양평읍,2,0,031-772-1024,경기도 양평군 양평읍 창대리 산 23,3,개방화장실,3,127.4956451,0,경기도 양평군 양평읍 창대리 산 23,0,0,37.48456114,0,,2018-08-01
코바코연수원본관,N,0,07:00~22:00,코바코연수원,13,0,,,10,공중화장실,19,127.4965545,0,경기도 양평군 강상면 강남로 1375,0,0,37.45113014,0,,2018-08-01
코바코연수원옥외,N,0,07:00~22:00,코바코연수원,2,0,,,8,공중화장실,3,127.4965545,0,경기도 양평군 강상면 강남로 1375,0,0,37.45113014,0,,2018-08-01
코바코연수원화합관,N,0,05:00~23:00,코바코연수원,8,0,,,20,공중화장실,9,127.4965545,0,경기도 양평군 강상면 강남로 1375,0,0,37.45113014,0,,2018-08-01
태양주유소,N,0,07:00~22:00,태양주유소,2,0,,,2,공중화장실,2,127.5003886,0,경기도 양평군 양평읍 양근로 316,0,0,37.4824256,0,Jan-17,2018-08-01
토마토앤어니언휴게소,N,0,09:00~21:00,토마토앤어니언휴게소,7,0,,,14,공중화장실,11,127.5302566,0,경기도 양평군 양평읍 경강로 2271,0,0,37.49415967,2,Jan-91,2018-08-01
팔당수난구조대,N,0,09:00~18:00,팔당수난구조대,1,0,,,1,공중화장실,2,127.3486375,0,경기도 양평군 서종면 북한강로 619,0,0,37.59444566,0,Dec-00,2018-08-01
평화의집,N,0,08:00~18:00,평화의집,10,0,,경기도 양평군 양동면 삼산리248번지,15,공중화장실,7,127.7761476,0,경기도 양평군 양동면 양동금곡4길 108-20,0,0,37.41266947,7,,2018-08-01
평화주유소,N,0,연중무휴,평화주유소,2,0,,,2,공중화장실,2,127.6959285,0,경기도 양평군 청운면 경강로 4087,0,0,37.54309556,0,,2018-08-01
포도밭에아이들,N,0,06:00~22:00,포도밭에아이들,5,0,,경기도 양평군 양평읍 양근리426번지 1호,8,공중화장실,5,127.4890945,0,경기도 양평군 양평읍 양근로 174-1,0,0,37.49053143,2,,2018-08-01
하현교옆,N,0,06:00~22:00,용문면,1,0,,경기도 양평군 용문면 중원리 706,1,공중화장실,1,127.6222124,0,경기도 양평군 용문면 중원리 706,0,0,37.53390971,0,,2018-08-01
학골계곡주차장,N,0,06:00~22:00,용문면,1,0,,경기도 양평군 용문면 연수리 산 61-1,1,공중화장실,0,127.5625192,0,경기도 양평군 용문면 연수리 산 61-1,0,0,37.53740224,0,,2018-08-01
한강주유소,N,0,연중무휴,한강주유소,1,0,,,2,공중화장실,1,127.5403888,0,경기도 양평군 개군면 여양로 2140,0,0,37.41565446,0,,2018-08-01
한국야쿠르트개발원,N,0,07:00~22:00,한국야쿠르트개발원,10,0,,,12,공중화장실,16,127.6330195,0,경기도 양평군 단월면 한서로 1468,0,0,37.63925957,0,,2018-08-01
한국전력공사양평지점,N,0,07:00~22:00,개군면,5,0,,경기도 양평군 강상면 병산리 30-1,5,공중화장실,5,127.4808637,0,경기도 양평군 강상면 병산리 30-1,0,0,37.48715944,0,,2018-08-01
한길요양병원,N,0,09:00~18:00,한길요양병원,2,0,,,2,공중화장실,1,127.4232666,0,경기도 양평군 양서면 남한강변길 83,0,0,37.51126714,0,,2018-08-01
해성주유소,Y,0,연중무휴,해성주유소,0,0,,,1,공중화장실,1,127.5353017,0,경기도 양평군 개군면 개군로 137,0,0,37.45637422,0,,2018-08-01
향소1리게이트볼장,N,0,08:00~22:00,게이트볼회,1,0,,,1,공중화장실,1,127.646258,0,경기도 양평군 단월면 석산로 348,0,0,37.57861346,0,,2018-08-01
쉬자파크,N,1,연중무휴,전략기획과,2,0,,,3,공중화장실,2,127.5338704,0,경기도 양평군 양평읍 백안리 8,0,0,37.51191823,1,,2018-08-01
양근섬,N,0,연중무휴,안전총괄과,1,0,,,3,공중화장실,2,127.4791699,0,경기도 양평군 양평읍 양근리 600-4,0,0,37.49599612,0,,2018-08-01
용문산관광지(관리소),N,1,연중무휴,문화체육과,4,0,,,7,공중화장실,6,127.5830599,0,경기도 양평군 용문면 용문산로 641,0,0,37.54529617,1,,2018-08-01
용문산관광지(박물관) 1층,N,0,연중무휴,관광진흥과,3,0,,,3,공중화장실,3,127.5812266,0,경기도 양평군 용문면 용문산로 670,0,0,37.54760453,0,,2018-08-01
용문산관광지(박물관) 2층,N,0,연중무휴,관광진흥과,4,0,,,4,공중화장실,4,127.5812266,0,경기도 양평군 용문면 용문산로 670,0,0,37.54760453,0,,2018-08-01
용문산관광지(일주문),N,0,연중무휴,문화체육과,3,0,,,15,공중화장실,15,127.5737054,0,경기도 양평군 용문면 용문산로 749,0,0,37.54841256,0,,2018-08-01
용문산관광지(야영장),N,0,연중무휴,관광진흥과,2,0,,,2,공중화장실,2,127.5793159,0,경기도 양평군 용문면 신점리 531,0,0,37.54636695,0,,2018-08-01
용문산 주차장,N,0,연중무휴,용문면,3,0,,,3,공중화장실,3,127.5844004,0,경기도 양평군 용문면 신점리 374-1,0,0,37.54423719,0,,2018-08-01
용문사국민관광지 은행나무화장실,N,0,연중무휴,관광진흥과,3,0,,,3,공중화장실,3,127.582836,0,경기도 양평군 용문면 신점리 551,0,0,37.54327907,0,,2018-08-01
