화장실명,남녀공용화장실여부,남성용-장애인용대변기수,개방시간,관리기관명,남성용-대변기수,남성용-장애인용소변기수,전화번호,소재지지번주소,여성용-대변기수,구분,남성용-소변기수,경도,여성용-어린이용대변기수,소재지도로명주소,남성용-어린이용대변기수,남성용-어린이용소변기수,위도,여성용-장애인용대변기수,설치년도,데이터기준일자
청솔초등학교 앞,N,1,연중무휴,성남시청,2,0,031-729-4390,경기도 성남시 분당구 금곡동 218,3,이동화장실,2,127.1142958,0,경기도 성남시 분당구 금곡동 218,0,0,37.35481536,0,,2018-05-01
주택전시과 건너편 공원 앞,N,0,연중무휴,성남시청,2,0,031-729-4390,경기도 성남시 분당구 정자동 183-1,3,이동화장실,2,127.1094908,0,경기도 성남시 분당구 금곡로 298 (정자동),0,0,37.3571444,0,,2018-05-01
탄천좌안 하탑교 앞,N,1,연중무휴,성남시청,2,0,031-729-4390,경기도 성남시 분당구 야탑동 555,3,이동화장실,2,127.1227936,0,경기도 성남시 분당구 야탑동 555,0,0,37.41077783,0,,2018-05-01
야탑동물놀이장 앞,N,0,연중무휴,성남시청,4,0,031-729-4390,경기도 성남시 분당구 야탑동 555,5,이동화장실,2,127.1227936,0,경기도 성남시 분당구 야탑동 555,0,0,37.41077783,0,,2018-05-01
남한산성유원지,N,1,연중무휴,성남시청,6,0,031-729-4390,경기도 성남시 수정구 양지동 917,4,이동화장실,3,127.1717322,0,경기도 성남시 수정구 양지동 917,0,0,37.46419253,0,,2018-05-01
남한산성유원지,N,0,연중무휴,성남시청,1,0,031-729-4390,경기도 성남시 중원구 은행동 82-3,1,이동화장실,1,127.1720706,0,경기도 성남시 중원구 산성대로 626 (은행동),0,0,37.46391274,0,,2018-05-01
등산로(영장산),Y,0,연중무휴,성남시청,1,0,031-729-4390,경기도 성남시 수정구 복정동 산6-1,0,이동화장실,1,127.1424026,0,경기도 성남시 수정구 복정동 산6-1,0,0,37.45960867,0,,2018-05-01
등산로(영장산),N,0,연중무휴,성남시청,2,0,031-729-4390,경기도 성남시 분당구 율동 산61,3,이동화장실,3,127.1594284,0,경기도 성남시 분당구 율동 산61,0,0,37.38547975,0,,2018-05-01
등산로(청계산),N,0,연중무휴,성남시청,1,0,031-729-4390,경기도 성남시 수정구 상적동 산76-1,1,이동화장실,1,127.0591044,0,경기도 성남시 수정구 상적동 산76-1,0,0,37.41799728,0,,2018-05-01
금산젬월드,N,7,08:00~22:00,개인,21,0,031-713-5885,경기도 성남시 분당구 금곡동 157 금산젬월드,20,개방화장실,26,127.10947,0,경기도 성남시 분당구 돌마로 67 (금곡동),0,0,37.35042285,0,,2018-05-01
천사의도시Ⅱ,N,1,연중무휴,개인,12,0,031-711-3635,경기도 성남시 분당구 금곡동 165 천사의도시2 오피스텔,12,개방화장실,13,127.1077205,0,경기도 성남시 분당구 돌마로 51 (금곡동),0,0,37.35031629,1,,2018-05-01
성우스타우스,N,3,연중무휴,개인,3,0,031-711-7447,경기도 성남시 분당구 구미동 189-1 성우스타우스오피스텔,3,개방화장실,6,127.1109415,0,경기도 성남시 분당구 구미로 16 (구미동),0,0,37.3376451,3,,2018-05-01
분당시범현대상가,N,1,06:00~24:00,민간법인,11,0,031-701-1240,경기도 성남시 분당구 서현동 94 현대근린상가,10,개방화장실,15,127.1301507,0,경기도 성남시 분당구 중앙공원로40번길 8 (서현동),0,0,37.37964029,1,,2018-05-01
메트로골드 빌딩,N,0,연중무휴,개인,10,0,070-4149-0211,경기도 성남시 분당구 운중동 941 메트로골드,10,개방화장실,20,127.0784961,0,경기도 성남시 분당구 운중로 140 (운중동),0,0,37.39117248,10,,2018-05-01
하나프라자,N,2,연중무휴,개인,3,0,031-719-0933,경기도 성남시 분당구 정자동 17-1번지,3,개방화장실,0,127.1062438,0,경기도 성남시 분당구 정자동 느티로16(정자동),0,0,37.36808559,0,,2018-05-01
미금이코노샤르망,N,1,연중무휴,개인,2,0,031-716-8404,경기도 성남시 분당구 금곡동 165번지,2,개방화장실,0,127.1077205,0,경기도 성남시 분당구 돌마로 51(금곡동),0,0,37.35031629,0,,2018-05-01
유스페이스,N,2,연중무휴,개인,3,0,031-628-6114,경기도 성남시 분당구 운중동 964번지,7,개방화장실,0,127.0777176,0,경기도 성남시 분당구 운중로 131(운중동),0,0,37.39186675,0,,2018-05-01
인호프라자,N,0,09:00~23:00,개인,9,0,031-706-3955,경기도 성남시 분당구 분당동 161-2 인호프라자,4,개방화장실,0,127.1428532,0,경기도 성남시 분당구 장안로 16번길 14(분당동),0,0,37.36772358,0,,2018-05-01
신도시주유소,N,0,연중무휴,개인,1,0,031-706-5151,경기도 성남시 분당구 서현동 252,1,개방화장실,2,127.1238741,0,경기도 성남시 분당구 황새울로359번길 3 (서현동),0,0,37.38730547,0,,2018-05-01
해성주유소,N,0,연중무휴,개인,1,0,031-751-2222,경기도 성남시 중원구 하대원동 113-9 해성주유소,1,개방화장실,2,127.1380401,0,경기도 성남시 중원구 제일로 14 (하대원동),0,0,37.42838504,0,,2018-05-01
남문주유소,N,0,연중무휴,개인,1,0,031-754-8891,경기도 성남시 수정구 태평동 6537,1,개방화장실,2,127.1264319,0,경기도 성남시 수정구 성남대로 1301 (태평동),0,0,37.44585917,0,,2018-05-01
성남제일주유소,N,0,연중무휴,개인,2,0,031-753-2217,경기도 성남시 수정구 태평동 6116-3,1,개방화장실,2,127.1275456,0,경기도 성남시 수정구 성남대로 1268 (태평동),0,0,37.44277658,1,,2018-05-01
가야주유소,N,0,연중무휴,개인,2,0,031-751-5100,경기도 성남시 중원구 갈현동 379-1,2,개방화장실,2,127.1628147,0,경기도 성남시 중원구 경충대로 2590 (갈현동),0,0,37.42216423,0,,2018-05-01
e푸른주유소,N,0,연중무휴,개인,1,0,031-759-5189,경기도 성남시 수정구 복정동 662-1,2,개방화장실,2,127.126323,0,경기도 성남시 수정구 성남대로 1482 (복정동),0,0,37.46213134,0,,2018-05-01
수정가스,N,0,연중무휴,개인,2,0,031-759-4551,경기도 성남시 수정구 복정동 261-10,2,개방화장실,3,127.1256542,0,,0,0,37.46782634,0,,2018-05-01
판교테크노파크공원,N,0,연중무휴,성남시청,2,0,031-729-4390,경기도 성남시 분당구 삼평동 262-2,5,이동화장실,3,127.1055143,0,경기도 성남시 분당구 삼평동 262-2,0,0,37.39608064,0,,2018-05-01
분당1호 꿈동산,N,1,연중무휴,성남시청,2,0,031-729-4390,경기도 성남시 분당구 야탑동 332,2,이동화장실,3,127.1260189,0,경기도 성남시 분당구 야탑동 332,0,0,37.41449567,1,,2018-05-01
분당3호 야탑,N,1,연중무휴,성남시청,1,0,031-729-4390,경기도 성남시 분당구 야탑동 340,2,이동화장실,2,127.1305703,0,경기도 성남시 분당구 야탑동 340,0,0,37.41396826,1,,2018-05-01
분당5호 매향,N,1,연중무휴,성남시청,1,0,031-729-4390,경기도 성남시 분당구 야탑동 214-1,2,이동화장실,3,127.1373489,0,경기도 성남시 분당구 야탑동 214-1,0,0,37.41460947,1,,2018-05-01
분당7호 숲속,N,1,연중무휴,성남시청,1,0,031-729-4390,경기도 성남시 분당구 야탑동 213-1,2,이동화장실,3,127.1403185,0,경기도 성남시 분당구 야탑동 213-1,0,0,37.41394832,1,,2018-05-01
분당8호 양촌,N,1,연중무휴,성남시청,1,0,031-729-4390,경기도 성남시 분당구 야탑동 178,2,이동화장실,3,127.1469923,0,경기도 성남시 분당구 야탑동 178,0,0,37.4069756,1,,2018-05-01
분당9호 중탑,N,1,연중무휴,성남시청,1,0,031-729-4390,경기도 성남시 분당구 야탑동 301,2,이동화장실,3,127.1361803,0,경기도 성남시 분당구 매화로48번길 17-4 (야탑동),0,0,37.41169154,1,,2018-05-01
분당12호 오야소,N,1,연중무휴,성남시청,1,0,031-729-4390,경기도 성남시 분당구 야탑동 509,2,이동화장실,3,127.1268552,0,경기도 성남시 분당구 야탑동 509,0,0,37.40786339,1,,2018-05-01
분당13호 무잡모퉁이,N,1,연중무휴,성남시청,1,0,031-729-4390,경기도 성남시 분당구 야탑동 529,2,이동화장실,3,127.1269558,0,경기도 성남시 분당구 야탑동 529,0,0,37.4072506,1,,2018-05-01
분당15호 무장들,N,1,연중무휴,성남시청,1,0,031-729-4390,경기도 성남시 분당구 야탑동 524,2,이동화장실,3,127.1309887,0,경기도 성남시 분당구 야탑동 524,0,0,37.40764275,1,,2018-05-01
분당16호 탑골,N,0,연중무휴,성남시청,2,0,031-729-4390,경기도 성남시 분당구 야탑동 521,3,이동화장실,2,127.1362645,0,경기도 성남시 분당구 야탑동 521,0,0,37.4082496,0,,2018-05-01
분당20호 과수원,N,1,연중무휴,성남시청,1,0,031-729-4390,경기도 성남시 분당구 이매동 103,2,이동화장실,3,127.1259312,0,경기도 성남시 분당구 이매동 103,0,0,37.40230514,1,,2018-05-01
분당21호 아름,N,1,연중무휴,성남시청,1,0,031-729-4390,경기도 성남시 분당구 이매동 134,2,이동화장실,3,127.122961,0,경기도 성남시 분당구 이매동 134,0,0,37.40241632,1,,2018-05-01
분당23호 방아다리,N,1,연중무휴,성남시청,1,0,031-729-4390,경기도 성남시 분당구 이매동 114,2,이동화장실,2,127.1257429,0,경기도 성남시 분당구 이매동 114,0,0,37.39763812,1,,2018-05-01
분당24호 이매길,N,1,연중무휴,성남시청,1,0,031-729-4390,경기도 성남시 분당구 이매동 148,2,이동화장실,3,127.1221896,0,경기도 성남시 분당구 이매동 148,0,0,37.39310968,1,,2018-05-01
분당26호 누엣길,N,1,연중무휴,성남시청,1,0,031-729-4390,경기도 성남시 분당구 이매동 125,2,이동화장실,2,127.1256059,0,경기도 성남시 분당구 이매동 125,0,0,37.38980849,1,,2018-05-01
분당로주유소,N,0,연중무휴,개인,2,0,031-708-0443,경기도 성남시 분당구 백현동 366-10 분당로 주유소,2,개방화장실,2,127.1014926,0,경기도 성남시 분당구 대왕판교로 381 (백현동),0,0,37.37781157,0,,2018-05-01
성남시청및의회,N,17,(평일)06:00~22:00+(주말공휴일)06:00~22:00 (연중무휴),성남시청,79,26,031-729-2774,경기도 성남시 중원구 여수동 200번지 성남시청경기도 성남시 중원구 여수동 200 성남시청,170,공중화장실,88,127.1265025,9,경기도 성남시 중원구 성남대로 997(여수동 성남시청경기도 성남시 중원구 여수동 200 성남시청,0,0,37.42005437,17,,2018-05-01
수정구보건소,N,6,(평일)08:00~20:00+(주말)09:00~18:00+(공휴일)09:00~18:00,수정구보건소,16,0,031-729-3882,경기도 성남시 수정구 신흥동 3435 수정구보건소,29,공중화장실,13,127.1440466,0,경기도 성남시 수정구 수정로 218,0,0,37.44427171,6,,2018-05-01
수정도서관,N,4,(평일)09:00~21:00+(주말)09:00~18:00+(공휴일)09:00~18:00,성남시청,11,0,031-743-9600,경기도 성남시 수정구 산성동 2224,13,공중화장실,15,127.1534303,1,경기도 성남시 중원구 산성동 2224,1,0,37.45210784,2,,2018-05-01
등산로,N,0,연중무휴,성남시청,1,0,031-729-4390,경기도 성남시 중원구 하대원동 산34-14,1,이동화장실,0,127.1421226,0,경기도 성남시 중원구 하대원동 산34-14,0,0,37.42436183,0,,2018-05-01
수정구청별관,N,0,평일(09:00~18:00),성남시청,2,0,031-729-5055,경기도 성남시 수정구 수정로 283 (신흥동),2,공중화장실,2,127.1457869,0,경기도 성남시 수정구 수정로 283 (신흥동),0,0,37.45024325,0,,2018-05-01
중원구청,N,5,평일(09:00~18:00),성남시청,25,0,031-729-6054,경기도 성남시 중원구 제일로 36 (성남동),25,공중화장실,29,127.1370947,0,경기도 성남시 중원구 제일로 36 (성남동),2,0,37.43041338,1,,2018-05-01
수내1동 주민자치센터,N,1,평일(09:00~18:00),성남시청,2,1,031-729-7624,경기도 성남시 분당구 내정로173번길 21 (수내동),2,공중화장실,4,127.1179053,0,경기도 성남시 분당구 내정로173번길 21 (수내동),0,0,37.37550818,2,,2018-05-01
수내3동주민센터,N,1,평일(09:00~18:00),성남시청,1,1,031-729-7667,경기도 성남시 분당구 돌마로356번길 43 (수내동),5,공중화장실,2,127.1260199,0,경기도 성남시 분당구 돌마로356번길 43 (수내동),0,0,37.36675118,1,,2018-05-01
정자2동주민센터,N,1,평일(09:00~18:00),성남시청,2,0,031-729-7707,경기도 성남시 분당구 내정로 66 (정자동),3,공중화장실,3,127.1151024,0,경기도 성남시 분당구 내정로 66 (정자동),0,0,37.3659241,0,,2018-05-01
서현1동주민센터,N,1,평일(09:00~18:00),성남시청,3,0,031-729-7746,경기도 성남시 분당구 중앙공원로39번길 35 (서현동),6,공중화장실,6,127.1260122,0,경기도 성남시 분당구 중앙공원로39번길 35 (서현동),0,0,37.38280722,1,,2018-05-01
분당28호 소공원,Y,0,연중무휴,성남시청,2,0,031-729-4390,경기도 성남시 분당구 서현동 324,0,이동화장실,2,127.1367893,0,경기도 성남시 분당구 서현동 324,0,0,37.37945276,0,,2018-05-01
분당29호 점골,Y,0,연중무휴,성남시청,2,0,031-729-4390,경기도 성남시 분당구 서현동 332,0,이동화장실,2,127.1401271,0,경기도 성남시 분당구 서현동 332,0,0,37.37708829,0,,2018-05-01
분당31호 서현,Y,0,연중무휴,성남시청,3,0,031-729-4390,경기도 성남시 분당구 서현동 89-6,0,이동화장실,2,127.1270158,0,경기도 성남시 분당구 서현동 89-6,0,0,37.38197724,0,,2018-05-01
분당32호 분당,N,0,연중무휴,성남시청,2,0,031-729-4390,경기도 성남시 분당구 서현동 94-1,3,이동화장실,3,127.1311885,0,경기도 성남시 분당구 서현동 94-1,0,0,37.37903549,0,,2018-05-01
분당34호 서당,N,0,연중무휴,성남시청,1,0,031-729-4390,경기도 성남시 분당구 서현동 302-1,1,이동화장실,1,127.1344899,0,경기도 성남시 분당구 서현동 302-1,0,0,37.37517554,0,,2018-05-01
분당35호 양영,Y,0,연중무휴,성남시청,2,0,031-729-4390,경기도 성남시 분당구 서현동 317-1,0,이동화장실,2,127.1392961,0,경기도 성남시 분당구 서현동 317-1,0,0,37.37334104,0,,2018-05-01
분당37호 미래,N,0,연중무휴,성남시청,1,0,031-729-4390,경기도 성남시 분당구 서현동 309,1,이동화장실,2,127.1359614,0,경기도 성남시 분당구 서현동 309,0,0,37.37097518,0,,2018-05-01
분당38호 안말,N,0,연중무휴,성남시청,2,0,031-729-4390,경기도 성남시 분당구 분당동 194-3,0,이동화장실,2,127.1430429,0,경기도 성남시 분당구 분당동 194-3,0,0,37.37258882,0,,2018-05-01
분당43호 초림,N,0,연중무휴,성남시청,2,0,031-729-4390,경기도 성남시 분당구 수내동 31,2,이동화장실,3,127.1175776,0,경기도 성남시 분당구 수내동 31,0,0,37.37528325,0,,2018-05-01
구미동주민센터,N,1,평일(09:00~18:00),성남시청,6,0,031-729-7947,경기도 성남시 분당구 구미로 130 (구미동),12,공중화장실,6,127.1226023,0,경기도 성남시 분당구 구미로 130 (구미동),0,0,37.34014771,2,,2018-05-01
판교동주민센터,N,3,평일(09:00~18:00),성남시청,6,0,031-729-7887,경기도 성남시 분당구 서판교로32번길 9 (판교동),11,공중화장실,6,127.0985724,0,경기도 성남시 분당구 서판교로32번길 9 (판교동),2,0,37.38990554,1,,2018-05-01
운중동주민센터,N,2,평일(09:00~18:00),성남시청,8,0,031-729-7964,경기도 성남시 분당구 운중로138번길 10 (운중동),12,공중화장실,8,127.0778066,0,경기도 성남시 분당구 운중로138번길 10 (운중동),0,0,37.39054221,2,,2018-05-01
신흥3동주민센터,N,1,평일(09:00~18:00),성남시청,5,0,031-729-5643,경기도 성남시 수정구 공원로349번길 8 (신흥동),17,공중화장실,8,127.1487912,1,경기도 성남시 수정구 공원로349번길 8 (신흥동),0,0,37.44347306,1,,2018-05-01
중원어린이도서관,N,0,(평일)09:00~21:00+(주말)09:00~18:00+(공휴일)09:00~18:00,성남시청,13,0,031-729-4352,경기도 성남시 중원구 금광동 3487 성남시중원어린이도서관,22,공중화장실,8,127.1630948,5,경기도 성남시 중원구 산성대로408번길 42 (금광동),5,5,37.44755409,0,,2018-05-01
제2추모원,N,1,연중무휴,성남시영생관리사업소,1,1,031-729-3513,경기도 성남시 중원구 갈현동 122,3,공중화장실,1,127.1830438,0,경기도 성남시 중원구 순암로 800(갈현동),0,0,37.42050432,1,,2018-05-01
탄천 우안-1,N,0,연중무휴,성남시청,2,0,031-729-4344,경기도 성남시 분당구 정자동 253,3,이동화장실,2,127.1147739,0,경기도 성남시 분당구 불정로 50,0,0,37.35753597,0,,2018-05-01
탄천 우안-6,N,0,연중무휴,성남시 푸른도시사업소,1,0,031-729-4344,경기도 성남시 분당구 이매동 129-9,2,이동화장실,2,127.1251884,0,,0,0,37.39697195,0,,2018-05-01
탄천 우안-10,N,0,연중무휴,성남시 푸른도시사업소,2,0,031-729-4344,경기도 성남시 수정구 수진동 4690-1,5,이동화장실,4,127.1196603,0,,0,0,37.43693713,0,,2018-05-01
탄천 우안-13,N,0,연중무휴,성남시 푸른도시사업소,1,0,031-729-4344,경기도 성남시 수정구 오야동 46-10,3,이동화장실,3,127.1185407,0,,0,0,37.45099385,0,,2018-05-01
단대동주민센터,N,8,평일(09:00~18:00),성남시청,16,4,031-729-5785,경기도 성남시 수정구 희망로506번길 21 (단대동),8,공중화장실,8,127.155459,4,경기도 성남시 수정구 희망로506번길 21 (단대동),8,0,37.44933016,4,,2018-05-01
복정동주민센터,N,1,평일(09:00~18:00),성남시청,6,0,031-729-5843,경기도 성남시 수정구 복정동 641-11,6,공중화장실,6,127.1270751,0,경기도 성남시 수정구 복정로 144,0,0,37.46579761,1,,2018-05-01
고등동주민센터,N,1,평일(09:00~18:00),성남시청,1,0,031-729-5863,경기도 성남시 수정구 대왕판교로 949 (고등동),4,공중화장실,2,127.1016899,0,경기도 성남시 수정구 대왕판교로 949 (고등동),1,0,37.42494314,0,,2018-05-01
금광2동주민센터,N,1,평일(09:00~18:00),성남시청,4,0,031-729-6673,경기도 성남시 중원구 광명로 345 (금광동),4,공중화장실,4,127.1639846,0,경기도 성남시 중원구 광명로 345 (금광동),0,0,37.44616534,1,,2018-05-01
분당44호 햇빛,N,0,연중무휴,성남시청,2,0,031-729-4390,경기도 성남시 분당구 수내동 26,2,이동화장실,2,127.11682,0,경기도 성남시 분당구 수내동 26,0,0,37.3745001,0,,2018-05-01
분당45호 내정,N,0,연중무휴,성남시청,3,0,031-729-4390,경기도 성남시 분당구 수내동 62,0,이동화장실,2,127.1214336,0,경기도 성남시 분당구 수내동 62,0,0,37.37200877,0,,2018-05-01
분당46호 푸른,N,0,연중무휴,성남시청,2,0,031-729-4390,경기도 성남시 분당구 수내동 127,3,이동화장실,3,127.1249614,0,경기도 성남시 분당구 수내동 127,0,0,37.36839212,0,,2018-05-01
분당54호 불정,N,0,연중무휴,성남시청,2,0,031-729-4390,경기도 성남시 분당구 정자동 204,2,이동화장실,2,127.1208753,0,경기도 성남시 분당구 정자동 204,0,0,37.36155758,0,,2018-05-01
판교어2호 물빛,N,1,연중무휴,성남시청,2,0,031-729-4390,경기도 성남시 분당구 운중동 900-5도,7,이동화장실,3,127.0581418,0,경기도 성남시 분당구 운중동  900-5도,0,0,37.38384952,1,,2018-05-01
판교어21호 어울,N,0,연중무휴,성남시청,1,0,031-729-4390,경기도 성남시 분당구 삼평동 677,2,이동화장실,1,127.111293,0,경기도 성남시 분당구 삼평동 677,0,0,37.40160767,0,,2018-05-01
판교어22호 환상,N,0,연중무휴,성남시청,1,0,031-729-4390,경기도 성남시 분당구 삼평동 626,2,이동화장실,1,127.1020997,0,경기도 성남시 분당구 삼평동 626,0,0,37.40155267,0,,2018-05-01
금곡동물놀이장 앞,N,0,연중무휴,성남시청,4,0,031-729-4390,경기도 성남시 분당구 구미동 99,5,이동화장실,2,127.1207151,0,경기도 성남시 분당구 구미동 99,0,0,37.3457269,0,,2018-05-01
한국가스공사 앞,N,0,연중무휴,성남시청,2,0,031-729-4390,경기도 성남시 분당구 정자동 190-1,3,이동화장실,2,127.1131579,0,경기도 성남시 분당구 정자동 190-1,0,0,37.35628508,0,,2018-05-01
정자동물놀이장 앞,N,0,연중무휴,성남시청,4,0,031-729-4390,경기도 성남시 분당구 정자동 100-3,5,이동화장실,2,127.1089653,0,경기도 성남시 분당구 정자동 100-3,0,0,37.36869587,0,,2018-05-01
탄천우안 정자교 앞,N,0,연중무휴,성남시청,2,0,031-729-4390,경기도 성남시 분당구 정자동 100-3,2,이동화장실,1,127.1089653,0,경기도 성남시 분당구 정자동 100-3,0,0,37.36869587,0,,2018-05-01
상대원1동주민센터,N,3,평일(09:00~18:00),성남시청,5,0,031-729-6726,경기도 성남시 중원구 둔촌대로 425 (상대원동),5,공중화장실,3,127.1643182,0,경기도 성남시 중원구 둔촌대로 425 (상대원동),0,0,37.43313641,1,,2018-05-01
상대원3동주민센터,N,6,평일(09:00~18:00),성남시청,6,0,031-729-6774,경기도 성남시 중원구 박석로 78 (상대원동),4,공중화장실,9,127.1654282,0,경기도 성남시 중원구 박석로 78 (상대원동),0,0,37.43960408,0,,2018-05-01
시흥동주민센터,N,1,평일(09:00~18:00),성남시청,6,0,031-729-5906,경기도 성남시 수정구 여수대로56번길 6 (시흥동),6,공중화장실,6,127.1079332,0,경기도 성남시 수정구 여수대로56번길 6 (시흥동),0,0,37.42191939,1,,2018-05-01
장애인화장실(관리사무소옆),Y,0,연중무휴,성남시 푸른도시사업소,0,0,031-729-4303,경기도 성남시 수정구 양지동 880,0,이동화장실,0,127.1683964,0,,0,0,37.46362962,1,,2018-05-01
이동식화장실(덕운사입구),N,0,연중무휴,성남시 푸른도시사업소,1,0,031-729-4303,경기도 성남시 중원구 은행동 47-1번지 일원,1,이동화장실,0,127.176785,0,,0,0,37.46915871,0,,2018-05-01
경원프라자,N,0,연중무휴,개인,2,0,031-757-3377,경기도 성남시 수정구 태평동 5113-9 경원프라자,2,개방화장실,3,127.1270696,0,경기도 성남시 수정구 성남대로 1334 (태평동),0,0,37.44877774,0,,2018-05-01
SR프라자,N,9,연중무휴,개인,18,0,031-758-5268,경기도 성남시 수정구 수진동 56 SR프라자,18,개방화장실,27,127.1320394,0,경기도 성남시 수정구 수정로 106 (수진동),0,0,37.44069044,9,,2018-05-01
써미트,N,0,07:00~22:00,개인,15,0,031-755-6046,경기도 성남시 수정구 수진동 4518 써미트빌딩,3,개방화장실,16,127.1295199,0,경기도 성남시 수정구 산성대로 95 (신흥동),0,0,37.43418793,1,,2018-05-01
성남중앙지하상가(D동),N,0,연중무휴,성남시청,4,0,031-721-3934,경기도 성남시 중원구 성남동 1315,7,개방화장실,0,127.1402592,0,경기도 성남시 수정구 산성대로244-4 (수진동),0,0,37.43710419,0,,2018-05-01
모란종합시장,N,0,07:00~20:00,민간법인,2,0,,경기도 성남시 중원구 성남동 4214 모란종합시장,3,개방화장실,3,127.1273784,0,경기도 성남시 중원구 둔촌대로69번길 8 (성남동),0,0,37.43055015,0,,2018-05-01
향군회관,Y,0,연중무휴,성남시청,11,0,031-742-3737,경기도 성남시 중원구 금광동 1789,0,개방화장실,14,127.1657925,0,경기도 성남시 중원구 광명로 360 (금광동),0,0,37.44608178,0,,2018-05-01
선경종합A상가,N,0,07:00~24:00,개인,10,0,031-731-7287,경기도 성남시 중원구 상대원동 279-1 선경상대원2차아파트,10,개방화장실,15,127.1692606,0,경기도 성남시 중원구 금상로 134 (상대원동),0,0,37.44040965,0,,2018-05-01
대원교회,N,1,05:00~22:00,개인,7,0,031-748-7500,경기도 성남시 중원구 상대원동 3397,10,개방화장실,9,127.1577869,0,경기도 성남시 중원구 희망로 365 (상대원동),0,0,37.43829888,0,,2018-05-01
상희공원,N,0,연중무휴,성남시청,3,0,031-729-4390,경기도 성남시 분당구 야탑동 271,4,이동화장실,4,127.1411261,0,,0,0,37.41080287,0,,2018-05-01
새벽월드교회 앞,N,0,연중무휴,성남시청,2,0,031-729-4390,경기도 성남시 분당구 수내동 50-3,2,이동화장실,1,127.112936,0,경기도 성남시 분당구 수내동 50-3,0,0,37.38206326,0,,2018-05-01
맴돌물놀이장 앞,N,0,연중무휴,성남시청,2,0,031-729-4390,경기도 성남시 분당구 수내동 44,3,이동화장실,2,127.1143807,0,경기도 성남시 분당구 수내동 44,0,0,37.38170151,0,,2018-05-01
분당소방서 앞,N,1,연중무휴,성남시청,2,0,031-729-4390,경기도 성남시 분당구 서현동 288-1,3,이동화장실,2,127.1199339,0,경기도 성남시 분당구 서현동 288-1,0,0,37.38769687,0,,2018-05-01
이매고등학교 앞,N,0,연중무휴,성남시청,2,0,031-729-4390,경기도 성남시 분당구 이매동 130,2,이동화장실,1,127.1237081,0,경기도 성남시 분당구 이매동 130,0,0,37.39641484,0,,2018-05-01
이매초등학교 앞,N,0,연중무휴,성남시청,2,0,031-729-4390,경기도 성남시 분당구 이매동 130,2,이동화장실,1,127.1237081,0,경기도 성남시 분당구 이매동 130,0,0,37.39641484,0,,2018-05-01
운중천,N,0,연중무휴,성남시청,0,0,031-729-4390,경기도 성남시 분당구 이매동 130,1,이동화장실,1,127.1237081,0,경기도 성남시 분당구 이매동 130,0,0,37.39641484,0,,2018-05-01
탄천운동장 앞,N,0,연중무휴,성남시청,2,0,031-729-4390,경기도 성남시 분당구 야탑동 555,3,이동화장실,2,127.1227936,0,경기도 성남시 분당구 야탑동 555,0,0,37.41077783,0,,2018-05-01
코리아디자인센터 앞,N,0,연중무휴,성남시청,2,0,031-729-4390,경기도 성남시 분당구 야탑동 555,3,이동화장실,2,127.1227936,0,경기도 성남시 분당구 야탑동 555,0,0,37.41077783,0,,2018-05-01
당골공원,N,0,연중무휴,성남시청,3,0,031-729-4390,경기도 성남시 분당구 분당동 37,4,이동화장실,5,127.1297091,0,,0,0,37.37214435,0,,2018-05-01
황새울공원,N,0,연중무휴,성남시청,4,0,031-729-4390,경기도 성남시 분당구 수내동 42,4,이동화장실,3,127.1181555,0,경기도 성남시 분당구 황새울로 287 (수내동),0,0,37.38405853,0,,2018-05-01
금곡공원,N,0,연중무휴,성남시청,1,0,031-729-4390,경기도 성남시 분당구 정자동 183-1,1,이동화장실,2,127.1094908,0,경기도 성남시 분당구 금곡로 298 (정자동),0,0,37.3571444,0,,2018-05-01
수내공원,N,0,연중무휴,성남시청,1,0,031-729-4390,경기도 성남시 분당구 수내동 산8-1,2,이동화장실,2,127.1250211,0,경기도 성남시 분당구 수내동 산8-1,0,0,37.36341847,0,,2018-05-01
운중공원,N,0,연중무휴,성남시청,3,0,031-729-4390,경기도 성남시 분당구 운중동 435-6,7,이동화장실,3,127.0577171,0,경기도 성남시 분당구 운중동 435-6,0,0,37.38997658,0,,2018-05-01
나들이공원,N,0,연중무휴,성남시청,3,0,031-729-4390,경기도 성남시 분당구 삼평동 산27-2,7,이동화장실,4,127.1089111,0,경기도 성남시 분당구 삼평동 산27-2,0,0,37.3943387,0,,2018-05-01
아미고타워,N,1,연중무휴,개인,48,0,031-622-0112,경기도 성남시 분당구 야탑동 358-3 분당아미고타워,43,개방화장실,49,127.1281586,0,경기도 성남시 분당구 야탑로81번길 10 (야탑동),0,0,37.41055603,1,,2018-05-01
에클라트 Ⅰ,N,8,연중무휴,개인,8,0,031-705-0682,경기도 성남시 분당구 서현동 251-3 엘지분당에클라트,12,개방화장실,12,127.123853,0,경기도 성남시 분당구 서현로 184 (서현동),0,0,37.38817046,0,,2018-05-01
우성종합상가,N,0,연중무휴,민간법인,18,0,031-701-4309,경기도 성남시 분당구 서현동 94-3 우성종합상가,12,개방화장실,12,127.1321016,0,경기도 성남시 분당구 중앙공원로40번길 42 (서현동),0,0,37.37822359,0,,2018-05-01
대덕글로리,N,1,연중무휴,개인,15,0,031-719-6401,경기도 성남시 분당구 수내동 7-1 대덕글로리,15,개방화장실,15,127.1169073,0,경기도 성남시 분당구 수내로46번길 11 (수내동),0,0,37.37997817,0,,2018-05-01
다운타운빌딩,N,10,연중무휴,개인,20,0,031-714-7542,경기도 성남시 분당구 수내동 22-3 수내동 다운타운,18,개방화장실,30,127.111325,0,경기도 성남시 분당구 백현로 97 (수내동),0,0,37.37675779,10,,2018-05-01
폴라리스,N,2,07:00~24:00,개인,28,0,031-712-4785,경기도 성남시 분당구 정자동 15-3 폴라리스빌딩,29,개방화장실,36,127.1074321,0,경기도 성남시 분당구 성남대로 381 (정자동),0,0,37.37020193,0,,2018-05-01
젤존타워 Ⅰ,N,1,연중무휴,개인,33,0,031-711-4955,경기도 성남시 분당구 정자동 17-1 젤존타워1,44,개방화장실,55,127.1062438,0,경기도 성남시 분당구 느티로 16 (정자동),0,0,37.36808559,1,,2018-05-01
쉐보레 A/S 앞,N,0,연중무휴,성남시청,2,0,031-729-4390,경기도 성남시 분당구 야탑동 555,3,이동화장실,2,127.1227936,0,경기도 성남시 분당구 야탑동 555,0,0,37.41077783,0,,2018-05-01
탄천우안 둔전교 앞,N,0,연중무휴,성남시청,2,0,031-729-4390,경기도 성남시 수정구 둔전동 216,3,이동화장실,2,127.1169105,0,경기도 성남시 수정구 둔전동 216,0,0,37.42683056,0,,2018-05-01
태평동물놀이장 앞,N,0,연중무휴,성남시청,4,0,031-729-4390,경기도 성남시 수정구 태평동 7003-13,5,이동화장실,2,127.1175479,0,경기도 성남시 수정구 태평동 7003-13,0,0,37.44471484,0,,2018-05-01
태평동인라인장 앞,N,0,연중무휴,성남시청,2,0,031-729-4390,경기도 성남시 수정구 태평동 7049-1,3,이동화장실,2,127.1184636,0,경기도 성남시 수정구 태평동 7049-1,0,0,37.44499326,0,,2018-05-01
복정동하수처리장 앞,N,0,연중무휴,성남시청,1,0,031-729-4390,경기도 성남시 수정구 복정동 301-2,1,이동화장실,1,127.1223487,0,경기도 성남시 수정구 복정동 301-2,0,0,37.46485644,0,,2018-05-01
남한산성유원지,N,0,연중무휴,성남시청,5,0,031-729-4390,경기도 성남시 중원구 은행동 82-3,3,이동화장실,4,127.1720706,0,경기도 성남시 중원구 산성대로 626 (은행동),0,0,37.46391274,0,,2018-05-01
남한산성유원지,N,1,연중무휴,성남시청,0,0,031-729-4390,경기도 성남시 수정구 양지동 880,0,이동화장실,0,127.1683964,0,경기도 성남시 수정구 양지동 880,0,0,37.46362962,0,,2018-05-01
남한산성유원지,N,1,연중무휴,성남시청,3,0,031-729-4390,경기도 성남시 중원구 은행동 82-3,8,이동화장실,5,127.1720706,0,경기도 성남시 중원구 산성대로 626 (은행동),0,0,37.46391274,0,,2018-05-01
남한산성유원지,N,0,연중무휴,성남시청,1,0,031-729-4390,경기도 성남시 수정구 양지동 880,3,이동화장실,3,127.1683964,0,경기도 성남시 수정구 양지동 880,0,0,37.46362962,0,,2018-05-01
남한산성유원지,N,0,연중무휴,성남시청,2,0,031-729-4390,경기도 성남시 중원구 은행동 82-3,2,이동화장실,0,127.1720706,0,경기도 성남시 중원구 산성대로 626 (은행동),0,0,37.46391274,0,,2018-05-01
남한산성유원지,N,0,연중무휴,성남시청,1,0,031-729-4390,경기도 성남시 중원구 은행동 산7-2,1,이동화장실,0,127.1786789,0,경기도 성남시 중원구 산성대로625번길 22 (은행동),0,0,37.46696649,0,,2018-05-01
남한산성유원지,N,0,연중무휴,성남시청,1,0,031-729-4390,경기도 성남시 중원구 은행동 47-3,1,이동화장실,0,127.1769782,0,경기도 성남시 중원구 산성대로625번길 66 (은행동),0,0,37.46960892,0,,2018-05-01
남한산성유원지,N,0,연중무휴,성남시청,1,0,031-729-4390,경기도 성남시 중원구 은행동 82-3,2,이동화장실,2,127.1720706,0,경기도 성남시 중원구 산성대로 626 (은행동),0,0,37.46391274,0,,2018-05-01
남한산성유원지,N,0,연중무휴,성남시청,1,0,031-729-4390,경기도 성남시 중원구 은행동 533-1,2,이동화장실,1,127.1713467,0,경기도 성남시 중원구 은행동 533-1,0,0,37.46366149,0,,2018-05-01
등산로(영장산),Y,0,연중무휴,성남시청,1,0,031-729-4390,경기도 성남시 수정구 복정동 산55-9,0,이동화장실,1,127.1378705,0,경기도 성남시 수정구 복정동 산55-9,0,0,37.45346912,0,,2018-05-01
등산로(영장산),Y,0,연중무휴,성남시청,1,0,031-729-4390,경기도 성남시 수정구 복정동 산50-1,0,이동화장실,1,127.1327911,0,경기도 성남시 수정구 복정동 산50-1,0,0,37.45718693,0,,2018-05-01
등산로,Y,0,연중무휴,성남시청,1,0,031-729-4390,경기도 성남시 수정구 단대동 45,0,이동화장실,1,127.157149,0,경기도 성남시 수정구 논골로53번길 9 (단대동),0,0,37.45782439,0,,2018-05-01
한일가스,N,0,연중무휴,개인,3,0,031-752-2776,경기도 성남시 수정구 수진동 4593 성남충전소,1,개방화장실,4,127.1274003,0,경기도 성남시 수정구 성남대로 1203 (수진동),0,0,37.43693824,0,,2018-05-01
성남에너지,N,0,연중무휴,개인,1,0,031-755-7600,경기도 성남시 중원구 갈현동 542-1,3,개방화장실,3,127.1556513,0,경기도 성남시 중원구 경충대로 2653 (갈현동),0,0,37.42164211,0,,2018-05-01
갈현충전소,N,0,연중무휴,개인,4,0,031-754-7700,경기도 성남시 중원구 갈현동 351 갈현LPG충전소,1,개방화장실,4,127.1666565,0,경기도 성남시 중원구 경충대로 2558 (갈현동),0,0,37.42250135,0,,2018-05-01
송현충전소,N,0,연중무휴,개인,3,0,031-754-0683,경기도 성남시 수정구 태평동 7149 송현 LPG충전소,3,개방화장실,3,127.1248438,3,경기도 성남시 수정구 성남대로 1327 (태평동),3,3,37.44913145,0,,2018-05-01
동운주유소,N,0,연중무휴,개인,1,0,031-754-9600,경기도 성남시 중원구 성남동 3135,1,개방화장실,2,127.1342425,0,경기도 성남시 중원구 산성대로 136 (성남동),0,0,37.43399356,0,,2018-05-01
분당주유소,N,0,연중무휴,개인,1,0,031-701-4983,경기도 성남시 분당구 분당동 130,1,개방화장실,1,127.1476324,0,경기도 성남시 분당구 서현로 488 (분당동),0,0,37.36980817,0,,2018-05-01
위례현대주유소,N,0,연중무휴,개인,1,0,031-757-0551,경기도 성남시 수정구 복정동 268-10,1,개방화장실,1,127.126014,0,경기도 성남시 수정구 성남대로 1529,0,0,37.46669071,0,,2018-05-01
수정구청,Y,2,연중무휴,성남시청,22,0,031-729-5055,경기도 성남시 수정구 신흥동 30,16,공중화장실,30,127.1457869,0,경기도 성남시 수정구 수정로283,0,0,37.45024325,16,,2018-05-01
중원구청,N,5,연중무휴,성남시청,25,0,031-729-6051,경기도 성남시 중원구 성남동 3129 중원구청,25,공중화장실,29,127.1370947,0,경기도 성남시 중원구 제일로 36 (성남동),2,0,37.43041338,1,,2018-05-01
분당구청화장실,N,2,연중무휴,성남시 분당구청,24,2,031-729-7556,경기도 성남시 분당구 수내동 1,24,공중화장실,34,127.1190792,0,경기도 성남시 분당구 분당로50,0,0,37.38264304,2,,2018-05-01
중원구보건소,N,1,(평일)08:00~20:00+(주말)09:00~18:00+(공휴일)09:00~18:00,중원구보건소,2,1,031-729-3942,경기도 성남시 중원구 상대원동 269-10 노인보건센터 중원구보건소,4,공중화장실,1,127.1705633,0,경기도 성남시 중원구 금상로137,0,0,37.44188545,1,,2018-05-01
분당구보건소,N,1,(평일)09:00~21:00+(주말)09:00~18:00+(공휴일)09:00~18:00,분당구보건소,6,3,031-729-3957,경기도 성남시 분당구 야탑동 349 분당보건소,6,공중화장실,9,127.1245447,0,경기도 성남시 분당구 양현로 306 (야탑동),0,0,37.41092021,1,,2018-05-01
등산로(청계산),N,0,연중무휴,성남시청,1,0,031-729-4390,경기도 성남시 수정구 상적동 산76-1,3,이동화장실,1,127.0591044,0,경기도 성남시 수정구 상적동 산76-1,0,0,37.41799728,0,,2018-05-01
등산로(청계산),N,0,연중무휴,성남시청,1,0,031-729-4390,경기도 성남시 수정구 상적동 351,1,이동화장실,1,127.0682735,0,경기도 성남시 수정구 옛골로26번길 8 (상적동),0,0,37.42677736,0,,2018-05-01
등산로(청계산),N,0,연중무휴,성남시청,2,0,031-729-4390,경기도 성남시 수정구 상적동 산73-13,4,이동화장실,2,127.0420237,0,경기도 성남시 수정구 상적동 산73-13,0,0,37.41696801,0,,2018-05-01
등산로(청계산),N,0,연중무휴,성남시청,1,0,031-729-4390,경기도 성남시 수정구 상적동 산54-1,3,이동화장실,2,127.0723265,0,경기도 성남시 수정구 상적동 산54-1,0,0,37.42361252,0,,2018-05-01
등산로(청계산),N,0,연중무휴,성남시청,1,0,031-729-4390,경기도 성남시 수정구 금토동 578,1,이동화장실,1,127.0706291,0,경기도 성남시 수정구 금토동 578,0,0,37.40799907,0,,2018-05-01
등산로(주소확인 안됨),Y,0,연중무휴,성남시청,1,0,031-729-4390,경기도 성남시 중원구 금광동 산13,0,이동화장실,0,127.1760429,0,경기도 성남시 중원구 금광동 산13,0,0,37.45127499,0,,2018-05-01
등산로(매지봉),N,0,연중무휴,성남시청,1,0,031-729-4390,경기도 성남시 분당구 야탑동 산117-2,1,이동화장실,1,127.1463759,0,경기도 성남시 분당구 야탑동 산117-2,0,0,37.40355252,0,,2018-05-01
등산로(불곡산),N,0,연중무휴,성남시청,1,0,031-729-4390,경기도 성남시 분당구 구미동 산65,1,이동화장실,1,127.1283273,0,경기도 성남시 분당구 구미동 산65,0,0,37.34234026,0,,2018-05-01
분당구청별관,N,4,평일(09:00~18:00),성남시청,4,0,031-729-7556,경기도 성남시 분당구 분당로 50 (수내동),8,공중화장실,4,127.1190792,0,경기도 성남시 분당구 분당로 50 (수내동),0,0,37.38264304,4,,2018-05-01
분당동주민센터,N,1,평일(09:00~18:00),성남시청,2,0,031-729-7612,경기도 성남시 분당구 불정로 312 (분당동),3,공중화장실,2,127.1309587,0,경기도 성남시 분당구 불정로 312 (분당동),0,0,37.3700887,0,,2018-05-01
수내1동 주민센터,N,1,평일(09:00~18:00),성남시청,5,1,031-729-7624,경기도 성남시 분당구 내정로173번길 21 (수내동),5,공중화장실,5,127.1179053,0,경기도 성남시 분당구 내정로173번길 21 (수내동),0,0,37.37550818,1,,2018-05-01
수내2동주민센터,N,1,평일(09:00~18:00),성남시청,1,1,031-729-7643,경기도 성남시 분당구 내정로166번길 17 (수내동),2,공중화장실,1,127.1207455,0,경기도 성남시 분당구 내정로166번길 17 (수내동),0,0,37.37233382,1,,2018-05-01
정자동 주민센터,N,1,평일(09:00~21:00)+토(09:00~17:00)+일(09:00~17:00)(첫째 셋째 주),성남시청,2,1,031-729-7693,경기도 성남시 분당구 성남대로407번길 12 2층 (정자동),3,공중화장실,3,127.1063517,0,경기도 성남시 분당구 성남대로407번길 12 2층 (정자동),0,0,37.37269869,1,,2018-05-01
정자1동주민센터,N,2,평일(09:00~18:00),성남시청,6,2,031-729-8255,경기도 성남시 분당구 황새울로18번길 14 (정자동),4,공중화장실,2,127.1114948,0,경기도 성남시 분당구 황새울로18번길 14 (정자동),0,0,37.36139537,1,,2018-05-01
정자2동주민자치센터,N,3,평일(09:00~18:00),성남시청,6,0,031-729-7707,경기도 성남시 분당구 내정로 66 (정자동),15,공중화장실,9,127.1151024,0,경기도 성남시 분당구 내정로 66 (정자동),0,0,37.3659241,3,,2018-05-01
정자3동 주민센터,N,1,평일(09:00~18:00),성남시청,6,1,031-729-7723,경기도 성남시 분당구 정자동 210,6,공중화장실,6,127.1194067,0,경기도 성남시 분당구 돌마로 242,0,0,37.36078416,1,,2018-05-01
서현2동주민센터,N,1,평일(09:00~18:00),성남시청,3,1,031-729-7764,경기도 성남시 분당구 돌마로476번길 17 (서현동),4,공중화장실,4,127.1344573,0,경기도 성남시 분당구 돌마로476번길 17 (서현동),0,0,37.37592341,0,,2018-05-01
야탑1동주민센터,N,3,평일(09:00~18:00),성남시청,4,0,031-729-7832,경기도 성남시 분당구 장미로86번길 18 (야탑동),10,공중화장실,5,127.1302054,1,경기도 성남시 분당구 장미로86번길 18 (야탑동),0,0,37.41194139,0,,2018-05-01
야탑2동주민센터,N,1,평일(09:00~18:00),성남시청,2,0,031-729-7848,경기도 성남시 분당구 야탑로76번길 5 (야탑동),2,공중화장실,4,127.1272417,0,경기도 성남시 분당구 야탑로76번길 5 (야탑동),0,0,37.40935866,1,,2018-05-01
야탑3동주민센터,N,1,평일(09:00~18:00),성남시청,2,1,031-729-7867,경기도 성남시 분당구 야탑로167번길 12 (야탑동),3,공중화장실,5,127.1378164,0,경기도 성남시 분당구 야탑로167번길 12 (야탑동),0,0,37.41075263,1,,2018-05-01
금곡동주민센터,N,0,평일(09:00~18:00),성남시청,2,0,031-729-8282,경기도 성남시 분당구 성남대로171번길 14 (금곡동),3,공중화장실,4,127.1070224,0,경기도 성남시 분당구 성남대로171번길 14 (금곡동),0,0,37.35150625,1,,2018-05-01
구미1동주민센터,N,3,평일(09:00~18:00),성남시청,3,0,031-729-7928,경기도 성남시 분당구 돌마로90번길 8 (구미동),10,공중화장실,6,127.1117143,0,경기도 성남시 분당구 돌마로90번길 8 (구미동),0,0,37.3492585,0,,2018-05-01
삼평동주민센터,N,1,평일(09:00~18:00),성남시청,3,0,031-729-7992,경기도 성남시 분당구 동판교로266번길 7 (삼평동),3,공중화장실,6,127.116269,0,경기도 성남시 분당구 동판교로266번길 7 (삼평동),0,0,37.40599992,0,,2018-05-01
백현동주민센터,N,3,평일(09:00~18:00),성남시청,3,0,031-729-8304,경기도 성남시 분당구 동판교로 21 (백현동),9,공중화장실,6,127.1108222,0,경기도 성남시 분당구 동판교로 21 (백현동),0,0,37.38833624,0,,2018-05-01
신흥1동주민센터,N,2,평일(09:00~18:00),성남시청,5,2,031-729-5607,경기도 성남시 수정구 수정로188번길 7 (신흥동),4,공중화장실,8,127.1411287,0,경기도 성남시 수정구 수정로188번길 7 (신흥동),0,0,37.44294167,1,,2018-05-01
신흥2동주민센터,N,1,평일(09:00~18:00),성남시청,2,0,031-729-5625,경기도 성남시 수정구 수정로 270 (신흥동),2,공중화장실,2,127.1457384,0,경기도 성남시 수정구 수정로 270 (신흥동),0,1,37.44846834,0,,2018-05-01
태평1동주민센터,N,2,평일(09:00~18:00),성남시청,8,1,031-729-5667,경기도 성남시 수정구 모란로 88 (태평동),12,공중화장실,8,127.1261294,0,경기도 성남시 수정구 모란로 88 (태평동),0,0,37.44057962,0,,2018-05-01
중원도서관,N,5,(평일)09:00~21:00+(주말)09:00~18:00+(공휴일)09:00~18:00,성남시청,23,0,031-752-3913,경기도 성남시 중원구 성남동 3116-1 성남시중원도서관,23,공중화장실,23,127.1401788,3,경기도 성남시 중원구 원터로17번길 46 (성남동),3,3,37.4301936,0,,2018-05-01
경기도립성남도서관,N,1,(평일)09:00~21:00+(주말)09:00~18:00+(공휴일)09:00~18:00,성남시청,8,1,031-730-3500,경기도 성남시 수정구 신흥동 2344 성남도서관,9,공중화장실,14,127.1508434,1,경기도 성남시 수정구 공원로370번길 26 (신흥동),0,0,37.44693937,1,,2018-05-01
분당도서관,N,5,(평일)07:00~24:00+(주말)07:00~24:00+(공휴일)07:00~24:00(휴관일미개방),성남시 분당도서관,22,0,031-729-4653,경기도 성남시 분당구 정자동 208 분당도서관,22,공중화장실,30,127.1165694,1,경기도 성남시 분당구 불정로 110,1,0,37.35806586,5,,2018-05-01
판교도서관,N,0,(평일)09:00~21:00+(주말)09:00~18:00+(공휴일)09:00~18:00,성남시청,10,0,031-729-4572,경기도 성남시 분당구 판교동 553 판교도서관,30,공중화장실,20,127.0907198,0,경기도 성남시 분당구 운중로225번길 37 (판교동),0,0,37.39575017,0,,2018-05-01
차량등록사업소,N,1,평일 09:00~18:00,성남시 차량등록사업소,3,0,,경기도 성남시 분당구 야탑동 135-5 성남시차량등록사업소,3,공중화장실,5,127.1539842,0,경기도 성남시 분당구 야탑로 327,0,0,37.40716509,1,,2018-05-01
영생관리사업소,N,1,연중무휴,성남시영생관리사업소,2,1,031-729-3513,경기도 성남시 중원구 갈현동 112 영생관리사업소,3,공중화장실,3,127.1829263,0,경기도 성남시 중원구 순암로 787(갈현동),0,0,37.41861239,1,,2018-05-01
구미도서관,N,5,평일(07:00~24:00)+주말(07:00~24:00)공유일(07:00~24:00) 신정+설추석 연휴 미개방매월 첫째 세째주 금요일 휴관(전체),성남시청,19,0,031-729-4684,경기도 성남시 분당구 구미동 16 구미도서관,38,공중화장실,19,127.1076572,0,경기도 성남시 분당구 미금일로105,3,0,37.3453968,0,,2018-05-01
무지개도서관,N,1,평일(07:00~24:00)+주말(07:00~24:00)공유일(07:00~24:00) 신정+설추석 연휴 미개방매월 첫째 세째주 월요일 휴관(전체),성남시청,4,0,031-729-4772,경기도 성남시 분당구 구미동 일로111,8,공중화장실,4,127.1096664,0,경기도 성남시 분당구 구미일로111,0,0,37.34560224,1,,2018-05-01
탄천 우안-2,N,0,연중무휴,성남시 푸른도시사업소,2,0,031-729-4344,경기도 성남시 분당구 정자동 120-1,5,이동화장실,3,127.1096293,0,,0,1,37.36722663,0,,2018-05-01
탄천 우안-3,N,0,연중무휴,성남시 푸른도시사업소,1,0,031-729-4344,경기도 성남시 분당구 정자동 99-3,2,이동화장실,2,127.1096008,0,,0,0,37.37102893,0,,2018-05-01
탄천 우안-4,N,0,연중무휴,성남시 푸른도시사업소,2,0,031-729-4344,경기도 성남시 분당구 수내동 43,3,이동화장실,2,127.1168213,0,,0,0,37.38283445,0,,2018-05-01
탄천 우안-5,Y,1,연중무휴,성남시 푸른도시사업소,2,0,031-729-4344,경기도 성남시 분당구 서현동 288-1,3,이동화장실,2,127.1199339,0,,0,0,37.38769687,0,,2018-05-01
탄천 우안-7,N,0,연중무휴,성남시 푸른도시사업소,2,0,031-729-4344,경기도 성남시 분당구 야탑동 485-16,3,이동화장실,2,127.1234052,0,,0,0,37.41180436,0,,2018-05-01
탄천 우안-8,N,0,연중무휴,성남시 푸른도시사업소,2,0,031-729-4344,경기도 성남시 분당구 야탑동 485-19,5,이동화장실,3,127.120712,0,,0,1,37.4158616,0,,2018-05-01
탄천 우안-9,N,0,연중무휴,성남시 푸른도시사업소,2,0,031-729-4344,경기도 성남시 수정구 둔전동 216,3,이동화장실,2,127.1169105,0,,0,0,37.42683056,0,,2018-05-01
탄천 우안-11,N,0,연중무휴,성남시 푸른도시사업소,2,0,031-729-4344,경기도 성남시 수정구 태평동 7003-20,5,이동화장실,3,127.1193511,0,,0,1,37.44163165,0,,2018-05-01
탄천 우안-12,N,0,연중무휴,성남시 푸른도시사업소,2,0,031-729-4344,경기도 성남시 수정구 태평동 7064-2,3,이동화장실,2,127.1185971,0,,0,0,37.44360559,0,,2018-05-01
탄천 우안-14,N,0,연중무휴,성남시 푸른도시사업소,1,0,031-729-4344,경기도 성남시 수정구 복정동 301,1,이동화장실,1,127.1222689,0,,0,0,37.46446909,0,,2018-05-01
탄천 좌안-1,N,0,연중무휴,성남시 푸른도시사업소,2,0,031-729-4344,경기도 성남시 분당구 구미동 79,5,이동화장실,3,127.1198789,0,,0,1,37.34497989,0,,2018-05-01
태평2동주민센터,N,1,평일(09:00~18:00),성남시청,7,1,031-729-5692,경기도 성남시 수정구 남문로 108 (태평동),7,공중화장실,7,127.1386275,0,경기도 성남시 수정구 남문로 108 (태평동),0,0,37.4471072,1,,2018-05-01
태평3동주민센터,N,4,평일(09:00~18:00),성남시청,5,0,031-729-5707,경기도 성남시 수정구 남문로 54 (태평동),13,공중화장실,9,127.1330194,0,경기도 성남시 수정구 남문로 54 (태평동),0,0,37.44538358,1,,2018-05-01
태평4동주민센터,N,3,평일(09:00~18:00),성남시청,7,1,031-729-5723,경기도 성남시 수정구 남문로 132 (태평동),3,공중화장실,6,127.1440075,0,경기도 성남시 수정구 남문로 132 (태평동),0,0,37.44751535,1,,2018-05-01
수진1동주민센터,N,1,평일(09:00~18:00),성남시청,3,0,031-729-5745,경기도 성남시 수정구 탄리로 19 (수진동),7,공중화장실,4,127.1389848,0,경기도 성남시 수정구 탄리로 19 (수진동),0,0,37.43846618,1,,2018-05-01
수진2동주민센터,N,2,평일(09:00~18:00),성남시청,7,1,031-729-5763,경기도 성남시 수정구 성남대로 1204 (수진동),8,공중화장실,7,127.1287114,0,경기도 성남시 수정구 성남대로 1204 (수진동),0,0,37.4371621,0,,2018-05-01
산성동주민센터,N,1,평일(09:00~18:00),성남시청,9,0,031-729-5808,경기도 성남시 수정구 수정남로 261 (산성동),19,공중화장실,14,127.1500173,4,경기도 성남시 수정구 수정남로 261 (산성동),0,0,37.45213016,1,,2018-05-01
양지동주민센터,N,0,평일(09:00~18:00),성남시청,12,0,031-729-5832,경기도 성남시 수정구 양지동 874,12,공중화장실,12,127.1609064,0,경기도 성남시 수정구 산성대로 483(양지동),0,0,37.45482811,1,,2018-05-01
신촌동주민센터,N,0,평일(09:00~18:00),성남시청,1,0,031-729-5963,경기도 성남시 수정구 오야로 19 (오야동),1,공중화장실,1,127.1044301,0,경기도 성남시 수정구 오야로 19 (오야동),0,0,37.4546018,0,,2018-05-01
성남동주민센터,N,1,평일(09:00~18:00),성남시청,1,1,031-729-6841,경기도 성남시 중원구 제일로35번길 51 (성남동),1,공중화장실,1,127.1314934,0,경기도 성남시 중원구 제일로35번길 51 (성남동),0,0,37.4319423,0,,2018-05-01
금광1동주민센터,N,2,평일(09:00~18:00),성남시청,1,0,031-729-6851,경기도 성남시 중원구 광명로 328 (금광동),6,공중화장실,1,127.162321,0,경기도 성남시 중원구 광명로 328 (금광동),0,0,37.44502333,1,,2018-05-01
은행1동주민센터,N,9,평일(09:00~18:00),성남시청,8,8,031-729-6692,경기도 성남시 중원구 은행로 85 (은행동),8,공중화장실,8,127.168868,0,경기도 성남시 중원구 은행로 85 (은행동),0,0,37.45197004,0,,2018-05-01
은행2동주민센터,N,2,평일(09:00~18:00),성남시청,1,1,031-729-6704,경기도 성남시 중원구 은이로 21 (은행동),2,공중화장실,1,127.166517,0,경기도 성남시 중원구 은이로 21 (은행동),0,0,37.45701891,2,,2018-05-01
상대원2동주민센터,N,2,평일(09:00~18:00),성남시청,2,0,031-729-6756,경기도 성남시 중원구 희망로 371 (상대원동),2,공중화장실,2,127.1582852,0,경기도 성남시 중원구 희망로 371 (상대원동),0,0,37.43885685,0,,2018-05-01
하대원동주민센터,N,1,평일(09:00~18:00),성남시청,4,0,031-729-6885,경기도 성남시 중원구 둔촌대로 252 (하대원동),4,공중화장실,2,127.1463439,0,경기도 성남시 중원구 둔촌대로 252 (하대원동),0,0,37.42822209,0,,2018-05-01
도촌동주민센터,N,1,평일(09:00~18:00),성남시청,1,1,031-729-6807,경기도 성남시 중원구 도촌북로 176 (도촌동),1,공중화장실,1,127.1674001,0,경기도 성남시 중원구 도촌북로 176 (도촌동),0,0,37.41128281,1,,2018-05-01
탄천 좌안-2,Y,1,연중무휴,성남시 푸른도시사업소,2,0,031-729-4344,경기도 성남시 분당구 금곡동 219,3,이동화장실,2,127.1145782,0,,0,0,37.35497728,0,,2018-05-01
탄천 좌안-3,N,0,연중무휴,성남시 푸른도시사업소,2,0,031-729-4344,경기도 성남시 분당구 정자동 190-1,3,이동화장실,2,127.1131579,0,,0,0,37.35628508,0,,2018-05-01
탄천 좌안-4,N,0,연중무휴,성남시 푸른도시사업소,1,0,031-729-4344,경기도 성남시 분당구 수내동 49-1,2,이동화장실,2,127.1130146,0,,0,0,37.38181091,0,,2018-05-01
탄천 좌안-5,N,0,연중무휴,성남시 푸른도시사업소,1,0,031-729-4344,경기도 성남시 분당구 이매동 130,2,이동화장실,2,127.1237081,0,,0,0,37.39641484,0,,2018-05-01
탄천 좌안-6,N,0,연중무휴,성남시 푸른도시사업소,1,0,031-729-4344,경기도 성남시 분당구 이매동 130,1,이동화장실,0,127.1237081,0,,0,0,37.39641484,0,,2018-05-01
탄천 좌안-7,Y,1,연중무휴,성남시 푸른도시사업소,2,0,031-729-4344,경기도 성남시 분당구 야탑동 555,3,이동화장실,2,127.1227936,0,,0,0,37.41077783,0,,2018-05-01
탄천 좌안-8,N,0,연중무휴,성남시 푸른도시사업소,2,0,031-729-4344,경기도 성남시 분당구 야탑동 485-4,3,이동화장실,2,127.1218456,0,,0,0,37.41124731,0,,2018-05-01
탄천 좌안-9,N,0,연중무휴,성남시 푸른도시사업소,2,0,031-729-4344,경기도 성남시 분당구 야탑동 555,3,이동화장실,2,127.1227936,0,,0,0,37.41077783,0,,2018-05-01
운중천1,N,0,연중무휴,성남시 푸른도시사업소,1,0,031-729-4344,경기도 성남시 분당구 판교동 584-4,2,이동화장실,2,127.0988523,0,,0,0,37.38797715,0,,2018-05-01
산성공원 관리사무소 화장실,N,0,연중무휴,성남시 푸른도시사업소,1,0,031-729-4303,경기도 성남시 수정구 양지동 880,3,이동화장실,2,127.1683964,0,,0,0,37.46362962,0,,2018-05-01
조립식화장실(관리사무소옆),N,0,연중무휴,성남시 푸른도시사업소,1,0,031-729-4303,경기도 성남시 수정구 양지동 880,3,이동화장실,3,127.1683964,0,,0,0,37.46362962,0,,2018-05-01
다목적운동장 화장실,N,0,연중무휴,성남시 푸른도시사업소,2,0,031-729-4303,경기도 성남시 중원구 은행동 80-1,4,이동화장실,3,127.1724557,0,,0,0,37.46424556,1,,2018-05-01
한옥화장실,N,0,연중무휴,성남시 푸른도시사업소,3,0,031-729-4303,경기도 성남시 수정구 양지동 912,8,이동화장실,5,127.1731252,0,,0,0,37.46537985,1,,2018-05-01
이동식화장실(약사사입구),N,0,연중무휴,성남시 푸른도시사업소,1,0,031-729-4303,경기도 성남시 중원구 은행동 65번지 일원,1,이동화장실,0,127.1755356,0,,0,0,37.46660171,0,,2018-05-01
이동식화장실(청담약수터 앞),N,0,연중무휴,성남시 푸른도시사업소,1,0,031-729-4303,경기도 성남시 수정구 양지동 산45번지 일원,1,이동화장실,1,127.165791,0,,0,0,37.46621911,0,,2018-05-01
이동식화장실(백련사 위),N,0,연중무휴,성남시 푸른도시사업소,1,0,031-729-4303,경기도 성남시 수정구 양지동 산1번지,2,이동화장실,2,127.1758397,0,,0,0,37.47102516,0,,2018-05-01
이매2동주민센터,N,1,평일(09:00~18:00),성남시청,3,1,031-729-7805,경기도 성남시 분당구 탄천로79번길 19 (이매동),2,공중화장실,3,127.1217366,0,경기도 성남시 분당구 탄천로79번길 19 (이매동),0,0,37.39949829,1,,2018-05-01
아름빌딩,N,0,연중무휴,개인,3,0,070-8145-1026,경기도 성남시 분당구 서현동 258-1 아름빌딩,3,개방화장실,3,127.1212091,0,경기도 성남시 분당구 서현로180번길 26 (서현동),0,0,37.38720005,0,,2018-05-01
에메트타운,N,0,연중무휴,개인,2,0,031-709-7825,경기도 성남시 분당구 삼평동 709,2,개방화장실,0,127.1155437,0,경기도 성남시 분당구 판교로 375(삼평동),0,0,37.40433375,0,,2018-05-01
스타식스메트로,N,1,06:00~24:00,개인,2,0,031-701-3901,경기도 성남시 분당구 운중동 964 스타식스 메트로,2,개방화장실,0,127.0777176,0,경기도 성남시 분당구 운중로131 (운중동),0,0,37.39186675,0,,2018-05-01
이매주유소,N,0,연중무휴,개인,2,0,031-703-9515,경기도 성남시 분당구 이매동 90-2,2,개방화장실,1,127.1293802,0,경기도 성남시 분당구 성남대로772번길 2 (이매동),0,0,37.39816588,0,,2018-05-01
하대원주유소,N,0,연중무휴,개인,1,0,031-755-5189,경기도 성남시 중원구 하대원동 117-2,1,개방화장실,2,127.1404918,0,경기도 성남시 중원구 둔촌대로 200 (하대원동),0,0,37.42839123,0,,2018-05-01
백궁주유소,N,0,연중무휴,개인,5,0,031-715-0755,경기도 성남시 분당구 정자동 8-1,1,개방화장실,4,127.1062155,0,경기도 성남시 분당구 성남대로407번길 13 (정자동),0,0,37.37214018,0,,2018-05-01
반딧불주유소,N,0,연중무휴,개인,4,0,031-752-1113,경기도 성남시 중원구 갈현동 150-1,2,개방화장실,4,127.1795371,0,경기도 성남시 중원구 경충대로 2441 (갈현동),0,0,37.42330272,0,,2018-05-01
분당11호 종달새,N,1,연중무휴,성남시청,1,0,031-729-4390,경기도 성남시 분당구 야탑동 534,2,이동화장실,3,127.1232386,0,경기도 성남시 분당구 야탑동 534,0,0,37.4064976,1,,2018-05-01
분당14호 장승백이,N,0,연중무휴,성남시청,2,0,031-729-4390,경기도 성남시 분당구 야탑동 516,3,이동화장실,2,127.1309578,0,경기도 성남시 분당구 야탑동 516,0,0,37.40939073,0,,2018-05-01
분당18호 신일,N,1,연중무휴,성남시청,1,0,031-729-4390,경기도 성남시 분당구 야탑동 164,2,이동화장실,3,127.1440672,0,경기도 성남시 분당구 야탑동 164,0,0,37.40708725,1,,2018-05-01
분당22호 매송,N,1,연중무휴,성남시청,1,0,031-729-4390,경기도 성남시 분당구 이매동 144,2,이동화장실,2,127.122908,0,경기도 성남시 분당구 이매동 144,0,0,37.39746984,1,,2018-05-01
분당25호 구렛들,N,1,연중무휴,성남시청,1,0,031-729-4390,경기도 성남시 분당구 이매동 119,2,이동화장실,3,127.1249887,0,경기도 성남시 분당구 이매동 119,0,0,37.39219681,1,,2018-05-01
분당36호 수련,Y,0,연중무휴,성남시청,2,0,031-729-4390,경기도 성남시 분당구 서현동 314-1,0,이동화장실,2,127.1405475,0,경기도 성남시 분당구 서현동 314-1,0,0,37.3723665,0,,2018-05-01
분당39호 장안,N,0,연중무휴,성남시청,1,0,031-729-4390,경기도 성남시 분당구 분당동 89,0,이동화장실,2,127.1410411,0,경기도 성남시 분당구 분당동 89,0,0,37.37064499,0,,2018-05-01
이매1동주민센터,N,1,평일(09:00~18:00),성남시청,3,1,031-729-7792,경기도 성남시 분당구 성남대로779번길 10 (이매동),3,공중화장실,4,127.1271802,0,경기도 성남시 분당구 성남대로779번길 10 (이매동),0,0,37.39947467,1,,2018-05-01
성호시장,N,0,연중무휴,성남시청,1,0,031-729-3195,경기도 성남시 중원구 성남동 2090,2,이동화장실,2,127.1440686,0,경기도 성남시 중원구 광명로 147,0,0,37.43793764,0,,2018-05-01
성호시장,N,0,연중무휴,성남시청,1,0,031-729-3195,경기도 성남시 중원구 성남동 2090,2,이동화장실,2,127.1440686,0,경기도 성남시 중원구 광명로 147,0,0,37.43793764,0,,2018-05-01
정풍빌딩,N,0,08:00~22:00,개인,7,0,031-757-3000,경기도 성남시 수정구 수진동 4538 정풍빌딩,15,개방화장실,14,127.1273816,0,경기도 성남시 수정구 성남대로 1227 (수진동),0,0,37.43929888,0,,2018-05-01
제일프라자,N,0,07:00~23:00,개인,4,4,031-707-0129,경기도 성남시 수정구 수진동 3042 제일프라자,12,개방화장실,4,127.1291776,4,경기도 성남시 수정구 수정남로 10 (수진동),0,0,37.43894559,0,,2018-05-01
한화빌딩,N,0,06:00~21:00,개인,12,0,031-756-8318,경기도 성남시 수정구 태평동 3430번지,12,개방화장실,0,127.13749,0,경기도 성남시 수정구 수정로 157 (태평동),0,0,37.44293686,0,,2018-05-01
교보생명,N,0,08:00~20:00,개인,24,0,031-750-7271,경기도 성남시 수정구 신흥동 5542 교보빌딩,31,개방화장실,25,127.1369347,0,경기도 성남시 수정구 수정로 150 (신흥동),0,0,37.44205451,0,,2018-05-01
제중빌딩,N,0,08:00~20:00,개인,2,0,,경기도 성남시 수정구 신흥동 3436-11 제중빌딩,1,개방화장실,0,127.143097,0,경기도 성남시 수정구 수정로 210 (신흥동),0,0,37.44404759,0,,2018-05-01
우리효사랑병원,N,0,06:00~22:00,개인,6,0,031-735-7500,경기도 성남시 수정구 신흥동 62 세화빌딩,9,개방화장실,6,127.1452084,0,경기도 성남시 수정구 수정로 271 (신흥동),0,0,37.44910869,0,,2018-05-01
㈜이마트성남점,N,3,10:00~22:00,개인,3,0,031-8023-1272,경기도 성남시 수정구 신흥동 5493-1 한영빌딩,9,개방화장실,0,127.1422036,0,경기도 성남시 수정구 수정로 202 (태평동),0,0,37.44371527,0,,2018-05-01
성남중앙지하상가(E동),N,0,연중무휴,성남시청,4,0,031-721-3934,경기도 성남시 중원구 성남동 1315,7,개방화장실,0,127.1402592,0,경기도 성남시 수정구 산성대로244-4 (수진동),0,0,37.43710419,0,,2018-05-01
메드위즈메디칼센터,N,0,연중무휴,개인,1,0,031-756-9404,경기도 성남시 중원구 성남동 3208 성남동메디칼센타,2,개방화장실,2,127.1296537,0,경기도 성남시 중원구 광명로 5 (성남동),0,0,37.43310658,0,,2018-05-01
스타우드프라자,N,0,09:00~22:00,개인,27,0,031-741-6900,경기도 성남시 중원구 상대원동 5439-1 STARWOOD아파트형공장,27,개방화장실,45,127.161346,0,경기도 성남시 중원구 둔촌대로 400 (상대원동),0,0,37.43283409,0,,2018-05-01
현대상가,N,0,06:00~24:00,민간법인,6,0,031-733-4242,경기도 성남시 중원구 은행동 1932-6 현대아파트,9,개방화장실,8,127.1633978,0,경기도 성남시 중원구 자혜로17번길 16 (은행동),0,0,37.45186046,0,,2018-05-01
농협중앙회건물,N,0,09:00~17:00,개인,2,0,031-763-4311,경기도 성남시 중원구 성남동 4168,1,개방화장실,2,127.1284872,0,경기도 성남시 중원구 성남대로1139번길 6 (성남동),0,0,37.43149503,0,,2018-05-01
월드비전(성남종합사회복지관),N,3,08:00~21:00,월드비전,6,0,031-748-7151,경기도 성남시 중원구 금광동 2957 사회복지법인 월드비전 성남종합사회복지관,9,개방화장실,10,127.166015,0,경기도 성남시 중원구 금빛로 89 (금광동),0,0,37.44965844,0,,2018-05-01
희망대공원,N,0,연중무휴,성남시청,13,0,031-729-4390,경기도 성남시 수정구 신흥동 466,20,이동화장실,17,127.1500444,0,경기도 성남시 수정구 희망로509번길 20,0,0,37.44863424,0,,2018-05-01
단대공원,N,0,연중무휴,성남시청,11,0,031-729-4390,경기도 성남시 수정구 산성동 509,17,이동화장실,21,127.1554261,0,,0,0,37.45541195,0,,2018-05-01
영장근린공원,N,0,연중무휴,성남시청,5,0,031-729-4390,경기도 성남시 수정구 태평동 산52,10,이동화장실,8,127.1358538,0,,0,0,37.45063326,0,,2018-05-01
수진공원,N,0,연중무휴,성남시청,3,0,031-729-4390,경기도 성남시 수정구 수진동 산41-3,6,이동화장실,4,127.1254889,0,,0,0,37.435832,0,,2018-05-01
양지공원,N,0,연중무휴,성남시청,7,0,031-729-4390,경기도 성남시 수정구 양지동 968,11,이동화장실,9,127.1630949,0,,0,0,37.46349277,0,,2018-05-01
황송공원,N,0,연중무휴,성남시청,6,0,031-729-4390,경기도 성남시 중원구 금광동 2449-1,7,이동화장실,12,127.1724234,0,경기도 성남시 중원구 금빛로2번길 35 (금광동),0,0,37.44491016,0,,2018-05-01
은행공원,N,0,연중무휴,성남시청,4,0,031-729-4390,경기도 성남시 중원구 은행동 산62-1,6,이동화장실,6,127.1740161,0,,0,0,37.45457559,0,,2018-05-01
자혜공원,N,0,연중무휴,성남시청,1,0,031-729-4390,경기도 성남시 중원구 금광동 산47-1,2,이동화장실,1,127.1740138,0,,0,0,37.45354846,0,,2018-05-01
대원공원,N,0,연중무휴,성남시청,15,0,031-729-4390,경기도 성남시 중원구 하대원동 182,32,이동화장실,22,127.1507959,0,,0,0,37.43430738,0,,2018-05-01
사기막골공원,N,0,연중무휴,성남시청,2,0,031-729-4390,경기도 성남시 중원구 상대원동 28,4,이동화장실,4,127.1827315,0,,0,0,37.44580494,0,,2018-05-01
섬말공원,N,0,연중무휴,성남시청,2,0,031-729-4390,경기도 성남시 중원구 도촌동 654,5,이동화장실,3,127.1533506,0,,0,0,37.4179149,0,,2018-05-01
돌마공원,N,0,연중무휴,성남시청,1,0,031-729-4390,경기도 성남시 분당구 이매동 128-7,2,이동화장실,3,127.1280743,0,,0,0,37.38705783,0,,2018-05-01
태현공원,N,0,연중무휴,성남시청,2,0,031-729-4390,경기도 성남시 분당구 분당동 88,4,이동화장실,5,127.1436239,0,,0,0,37.36936251,0,,2018-05-01
분당중앙공원,N,0,연중무휴,성남시청,12,0,031-729-4390,경기도 성남시 분당구 수내동 65 야외공연장,22,이동화장실,17,127.1239938,0,경기도 성남시 분당구 성남대로 550 (수내동),0,0,37.37747532,0,,2018-05-01
능골공원,N,0,연중무휴,성남시청,3,0,031-729-4390,경기도 성남시 분당구 정자동 103,7,이동화장실,4,127.1166555,0,경기도 성남시 분당구 정자동 103,0,0,37.37025649,0,,2018-05-01
주택공원_봉우재공원,N,0,연중무휴,성남시청,1,0,031-729-4390,경기도 성남시 분당구 정자동 253,0,이동화장실,0,127.1147739,0,경기도 성남시 분당구 불정로 50 (정자동),0,0,37.35753597,0,,2018-05-01
머내공원,N,0,연중무휴,성남시청,1,0,031-729-4390,경기도 성남시 분당구 구미동 19,1,이동화장실,1,127.1060447,0,경기도 성남시 분당구 구미동 19,0,0,37.34631725,0,,2018-05-01
구미공원,N,0,연중무휴,성남시청,2,0,031-729-4390,경기도 성남시 분당구 구미동 299,2,이동화장실,4,127.1217967,0,경기도 성남시 분당구 금곡로 90 (구미동),0,0,37.34456351,0,,2018-05-01
율동공원,N,0,연중무휴,성남시청,24,0,031-729-4390,경기도 성남시 분당구 율동 318 율동공원,38,이동화장실,32,127.1508739,0,경기도 성남시 분당구 문정로 145 (율동),0,0,37.38203089,0,,2018-05-01
판교공원,N,0,연중무휴,성남시청,2,0,031-729-4390,경기도 성남시 분당구 하산운동 산4-11,6,이동화장실,3,127.0788874,0,경기도 성남시 분당구 하산운동 산4-11,0,0,37.39849743,0,,2018-05-01
화랑공원,N,0,연중무휴,성남시청,4,0,031-729-4390,경기도 성남시 분당구 삼평동 639,12,이동화장실,5,127.1057191,0,경기도 성남시 분당구 대왕판교로 609 (삼평동),0,0,37.39719771,0,,2018-05-01
시그마Ⅲ오피스텔,N,5,연중무휴,개인,5,0,031-607-5550,경기도 성남시 분당구 야탑동 360-1 시그마3,5,개방화장실,5,127.1295188,0,경기도 성남시 분당구 장미로 78 (야탑동),0,0,37.41341978,3,,2018-05-01
궁전프라자Ⅱ,N,2,연중무휴,개인,28,0,031-702-8123,경기도 성남시 분당구 야탑동 360-4 궁전프라자2,27,개방화장실,29,127.1292359,0,경기도 성남시 분당구 성남대로 934 (야탑동),0,0,37.41308671,0,,2018-05-01
세신옴니코아,N,0,06:00~23:00,개인,2,0,031-705-6000,경기도 성남시 분당구 야탑동 367-4 세신옴니코아빌딩,2,개방화장실,3,127.1292421,0,경기도 성남시 분당구 야탑로 95 (야탑동),0,0,37.41008635,0,,2018-05-01
관보쇼핑빌딩,N,1,연중무휴,개인,20,0,031-704-9464,경기도 성남시 분당구 야탑동 366-1 관보골든쇼핑스포츠빌딩,30,개방화장실,29,127.1298207,0,경기도 성남시 분당구 성남대로916번길 5 (야탑동),0,0,37.41155437,0,,2018-05-01
BYC빌딩,N,1,연중무휴,개인,23,0,031-783-8995,경기도 성남시 분당구 야탑동 367-1 분당BYC빌딩,23,개방화장실,24,127.129187,0,경기도 성남시 분당구 성남대로 912 (야탑동),0,0,37.41088831,1,,2018-05-01
테마폴리스(홈에버),N,14,연중무휴,법인,71,0,031-725-0725,경기도 성남시 분당구 야탑동 341 분당종합터미널,96,개방화장실,110,127.1272138,0,경기도 성남시 분당구 성남대로925번길 16 (야탑동),0,0,37.41302578,0,,2018-05-01
이코노 샤르망 빌딩,N,0,연중무휴,개인,16,0,031-781-8425,경기도 성남시 분당구 야탑동 360-3 이코노샤르망,24,개방화장실,24,127.1301853,0,경기도 성남시 분당구 장미로 86 (야탑동),0,0,37.41341906,0,,2018-05-01
우성프라자,N,0,연중무휴,개인,2,0,031-707-4203,경기도 성남시 분당구 서현동 95 분당우성프라자,2,개방화장실,3,127.1328233,0,경기도 성남시 분당구 돌마로 481 (서현동),0,0,37.37767318,0,,2018-05-01
서현파크 프라자,N,2,연중무휴,개인,2,1,031-781-2911,경기도 성남시 분당구 서현동 89 서현파크플라자,2,개방화장실,2,127.1254367,0,경기도 성남시 분당구 중앙공원로31번길 42 (서현동),0,0,37.38300604,0,,2018-05-01
서현리더스빌딩,N,5,연중무휴,개인,19,0,031-701-1613,경기도 성남시 분당구 서현동 274-4 서현리더스빌딩,19,개방화장실,19,127.119569,0,경기도 성남시 분당구 황새울로311번길 14 (서현동),0,0,37.38541767,5,,2018-05-01
코리아나빌딩,N,2,연중무휴,개인,19,0,031-719-8652,경기도 성남시 분당구 수내동 7-6 코리아나빌딩,19,개방화장실,19,127.1160143,0,경기도 성남시 분당구 황새울로258번길 32 (수내동),0,0,37.37933931,1,,2018-05-01
분당클리닉,N,2,08:00~22:00,개인,27,2,031-726-4785,경기도 성남시 분당구 정자동 15-2 분당클리닉빌딩,30,개방화장실,27,127.1074324,0,경기도 성남시 분당구 성남대로 385 (정자동),0,0,37.37048124,0,,2018-05-01
폴라리스Ⅱ,N,1,08:00~22:00,개인,29,0,031-716-4716,경기도 성남시 분당구 정자동 15-1 폴라리스빌딩2,38,개방화장실,29,127.1074329,0,경기도 성남시 분당구 성남대로 389 (정자동),0,0,37.37077858,1,,2018-05-01
젤존타워Ⅲ,N,10,연중무휴,개인,14,0,031-726-3363,경기도 성남시 분당구 정자동 156-1 젤존타워III,20,개방화장실,22,127.1076284,0,경기도 성남시 분당구 성남대로331번길 3-3 (정자동),0,0,37.36525519,0,,2018-05-01
대림아크로텔,N,1,연중무휴,개인,1,0,031-782-6075,경기도 성남시 분당구 정자동 168-1 대림아크로텔,1,개방화장실,2,127.107489,0,경기도 성남시 분당구 성남대로 295 (정자동),2,0,37.36242614,1,,2018-05-01
