화장실명,남녀공용화장실여부,남성용-장애인용대변기수,개방시간,관리기관명,남성용-대변기수,남성용-장애인용소변기수,전화번호,소재지지번주소,여성용-대변기수,구분,남성용-소변기수,경도,여성용-어린이용대변기수,소재지도로명주소,남성용-어린이용대변기수,남성용-어린이용소변기수,위도,여성용-장애인용대변기수,설치년도,데이터기준일자
여주종합터미널,N,2,24시간,성일종합건설(주),7,1,,,9,공중화장실,4,127.6356013,0,경기도 여주시 세종로 85 (홍문동),0,0,37.29034723,2,Jul-92,2018-08-20
남강주유소,N,0,영업시간개방,개인(송삼익),2,1,,,2,공중화장실,1,127.5624599,0,경기도 여주시 가남읍 경충대로 1040,0,0,37.18766432,0,17-Jun,2018-08-20
금강웰빙주유소,N,0,영업시간개방,개인(이정균),1,0,,,1,공중화장실,1,127.5483851,0,경기도 여주시 가남읍 경충대로 1219,0,0,37.1980202,0,17-Jan,2018-08-20
노인복지회관,N,2,24시간,경기도 여주시청,2,1,031-887-2605,경기도 여주시 상동 35-2,3,공중화장실,2,127.6512575,0,경기도 여주시 상동 35-2,0,0,37.29020806,2,17-Nov,2018-08-20
도자진흥재단하단입구옆,N,1,24시간,경기도청,12,1,,,12,공중화장실,4,127.6545464,0,경기도 여주시 신륵사길 7  (천송동),0,0,37.30014441,2,17-Sep,2018-08-20
대영LPG충전소,N,0,영업시간개방,개인(박병환),2,0,,,2,공중화장실,2,127.5422107,0,경기도 여주시 가남읍 경충대로 1331,0,0,37.20656886,0,17-Jan,2018-08-20
삼교주유소,N,0,영업시간개방,개인(임채영),2,0,,,2,공중화장실,1,127.6547922,0,경기도 여주시 장여로 1596  (삼교동),0,0,37.2399942,0,Jan-00,2018-08-20
원창주유소,N,0,영업시간개방,개인(김봉식),1,0,,,1,공중화장실,1,127.6621198,0,경기도 여주시 점동면 청안로 1,0,0,37.19487297,0,17-Oct,2018-08-20
명승메디칼빌딩,N,0,영업시간개방,개인(김익찬),11,1,,,12,공중화장실,5,127.6355733,0,경기도 여주시 세종로 73  (홍문동),0,0,37.29130968,1,17-Jul,2018-08-20
여주산림조합,N,1,영업시간개방,여주시산림조합,2,1,,,2,공중화장실,2,127.6301566,0,경기도 여주시 청심로 88  (하동),0,0,37.29953434,0,Jul-97,2018-08-20
여주휴계소(상행선),N,1,24시간,한국도로공사,23,1,,경기도 여주시 가남읍 본두리677번지,40,공중화장실,13,127.5717339,1,경기도 여주시 가남읍 본두리677번지,1,1,37.23884213,1,Sep-88,2018-08-20
문장휴게소,N,0,영업시간개방,개인(진익삼),1,1,,,3,공중화장실,3,127.5168196,0,경기도 여주시 흥천면 이여로 928,0,0,37.36354793,0,Jan-90,2018-08-20
롯데리아(여주점),N,0,영업시간개방,롯데리아여주점,1,0,,,2,공중화장실,1,127.6369378,0,경기도 여주시 세종로 21  (홍문동),0,0,37.2958471,0,May-99,2018-08-20
보문석유,N,0,영업시간개방,개인(윤삼호),1,0,,,1,공중화장실,1,127.6501993,0,경기도 여주시 여양로 208  (천송동),0,0,37.30142259,0,Dec-95,2018-08-20
삼원에너지능서충전소,N,0,영업시간개방,삼원에너지능서충전소(김순길),3,0,,,2,공중화장실,2,127.546846,0,경기도 여주시 능서면 중부대로 2171,0,0,37.29684187,0,17-Apr,2018-08-20
신성주유소,N,0,영업시간개방,개인,1,0,,,1,공중화장실,1,127.6032109,0,경기도 여주시 대신면 여양로 1233,0,0,37.3668835,0,Nov-94,2018-08-20
초현주유소,N,0,영업시간개방,개인(고근식),1,0,,,1,공중화장실,1,127.6046837,0,경기도 여주시 대신면 대신1로 186,0,0,37.38890751,0,Dec-92,2018-08-20
계림주유소,N,0,영업시간개방,개인,2,0,,경기도 여주시 대신면 132번지 1호,1,공중화장실,1,127.6285639,0,경기도 여주시 대신면 132번지 1호,0,0,37.34665528,0,Sep-93,2018-08-20
경기주유소,N,0,영업시간개방,개인(신동섭),0,0,,,0,공중화장실,0,127.5725861,0,경기도 여주시 대신면 여양1로 268,0,0,37.41193851,0,17-Feb,2018-08-20
예솔주유소,N,0,영업시간개방,개인(신동수),2,0,,,1,공중화장실,1,127.5561753,0,경기도 여주시 대신면 여양1로 104,0,0,37.4069676,0,May-93,2018-08-20
홍원막국수,N,0,영업시간개방,개인(이홍순),9,0,,,7,공중화장실,4,127.5473825,0,경기도 여주시 대신면 여양1로 14,0,0,37.40311988,1,Apr-95,2018-08-20
내산주유소,N,0,영업시간개방,개인(김선화),2,0,,,2,공중화장실,2,127.5667375,0,경기도 여주시 대신면 여양로 1678,0,0,37.38227661,0,Oct-93,2018-08-20
가산주유소,N,0,영업시간개방,개인(노성민),0,0,,,0,공중화장실,0,127.6197464,0,경기도 여주시 대신면 여양로 921,0,0,37.34487814,0,Jun-91,2018-08-20
강남주유소,N,0,영업시간개방,개인(정진원),3,0,,,1,공중화장실,1,127.6425072,0,경기도 여주시 대신면 여양로 681,0,0,37.33855413,0,May-94,2018-08-20
오학주유소,N,0,영업시간개방,개인(권영길),0,0,,경기도 여주시 오학동 100번지 6호,0,공중화장실,0,127.6438406,0,경기도 여주시 오학동 100번지 6호,0,0,37.31813343,0,Jul-00,2018-08-20
신륵사관광안내소옆화장실,N,1,24시간,경기도 여주시청,9,1,,경기도 여주시 천송동 290,6,공중화장실,5,127.6549489,0,경기도 여주시 천송동 290,0,0,37.29974213,1,Jan-90,2018-08-20
신륵사대형주차장화장실,N,1,24시간,경기도 여주시청,12,1,,경기도 여주시 천송동 545-7,6,공중화장실,4,127.6538419,0,경기도 여주시 천송동 545-7,0,0,37.29954282,1,Jan-90,2018-08-20
신륵사상가화장실,N,1,24시간,경기도 여주시청,6,1,,경기도 여주시 천송동 289-6,4,공중화장실,2,127.6551151,0,경기도 여주시 천송동 289-6,0,0,37.29809775,1,Jan-90,2018-08-20
신륵사공원화장실,N,1,24시간,경기도 여주시청,5,1,,경기도 여주시 천송동 288-57,4,공중화장실,2,127.6561169,0,경기도 여주시 천송동 288-57,0,0,37.29760204,1,Jan-90,2018-08-20
신접주유소,N,0,영업시간개방,개인(이종구),0,0,,,0,공중화장실,0,127.6950491,0,경기도 여주시 북내면 당전로 153,0,0,37.33281138,0,Jul-96,2018-08-20
석봉주유소,N,0,영업시간개방,개인(임병길),1,0,,,2,공중화장실,1,127.6693964,0,경기도 여주시 북내면 여양2로 567,0,0,37.35181933,0,Apr-91,2018-08-20
여강주유소,N,0,영업시간개방,개인,2,0,,,1,공중화장실,1,127.67614,0,경기도 여주시 북내면 여양2로 170,0,0,37.31895521,0,Jul-92,2018-08-20
이호나루주유소,N,0,영업시간개방,개인(박영호),2,0,,,1,공중화장실,1,127.6832682,0,경기도 여주시 강천면 강문로 239,0,0,37.28834449,0,Sep-90,2018-08-20
강천주유소,N,0,영업시간개방,개인(이성수),1,0,,경기도 여주시 강천면 간매리 129-1,1,공중화장실,1,127.702807,0,경기도 여주시 강천면 간매리 129-1,0,0,37.27989024,0,Aug-92,2018-08-20
남송주유소,N,0,영업시간개방,개인(이규래),2,0,,,2,공중화장실,4,127.6386948,0,경기도 여주시 세종로 366  (점봉동점봉3리),0,0,37.26567854,0,Sep-96,2018-08-20
SK주유소,N,0,영업시간개방,개인(이정균),1,0,,,1,공중화장실,1,127.5483851,0,경기도 여주시 가남읍 경충대로 1219,0,0,37.1980202,0,17-Dec,2018-08-20
이천주유소,N,0,영업시간개방,개인(정춘석),3,0,,,1,공중화장실,2,127.5340474,0,경기도 여주시 가남읍 경충대로 1477,0,0,37.21509734,0,Nov-93,2018-08-20
신해주유소,N,0,영업시간개방,개인(이선재),0,0,,,0,공중화장실,0,127.5313161,0,경기도 여주시 가남읍 경충대로 1520,0,0,37.21825606,0,May-97,2018-08-20
태방주유소,N,0,영업시간개방,개인(최종순),2,0,,,1,공중화장실,1,127.533538,0,경기도 여주시 가남읍 경충대로 1490,0,0,37.21635028,0,Nov-98,2018-08-20
태평주유소,N,0,영업시간개방,개인(최창열),0,0,,,0,공중화장실,0,127.5425148,0,경기도 여주시 가남읍 경충대로 1350,0,0,37.20813168,0,Dec-78,2018-08-20
동명주유소,N,0,영업시간개방,개인(임승복),2,0,,,2,공중화장실,2,127.5529881,0,경기도 여주시 가남읍 경충대로 1162-5,0,0,37.19533893,0,17-Nov,2018-08-20
세경주유소,N,0,영업시간개방,석미개발,0,0,,,0,공중화장실,0,127.5568016,0,경기도 여주시 가남읍 경충대로 1130,0,0,37.19438399,0,Feb-94,2018-08-20
남강주유소,N,0,영업시간개방,개인(송삼익),0,0,,,0,공중화장실,0,127.5624599,0,경기도 여주시 가남읍 경충대로 1040,0,0,37.18766432,0,17-Jun,2018-08-20
은봉주유소,N,0,영업시간개방,개인(김종학),2,0,,,1,공중화장실,1,127.5635964,0,경기도 여주시 가남읍 경충대로 980,0,0,37.18238602,0,Jul-91,2018-08-20
혜진주유소,N,0,영업시간개방,개인(문지권),2,0,,,0,공중화장실,2,127.556496,0,경기도 여주시 가남읍 여주남로 1099,0,0,37.21166737,0,Mar-92,2018-08-20
덕평주유소,N,0,영업시간개방,개인(허용),1,0,,,1,공중화장실,1,127.6621366,0,경기도 여주시 점동면 장여로 931,0,0,37.18389103,0,Dec-86,2018-08-20
원창주유소,N,0,영업시간개방,개인,1,0,,,1,공중화장실,1,127.6621198,0,경기도 여주시 점동면 청안로 1,0,0,37.19487297,0,17-Oct,2018-08-20
봉진막국수,N,0,영업시간개방,개인(노태유),4,1,,,4,공중화장실,1,127.5492123,0,경기도 여주시 대신면 천서리길 28,0,0,37.40314023,0,Jan-90,2018-08-20
상품주유소(구 영일주유소),N,0,영업시간개방,개인(김범희),0,0,,,0,공중화장실,0,127.4278518,0,경기도 여주시 산북면 광여로 1069,0,0,37.39578482,0,Aug-99,2018-08-20
이포주유소,N,0,영업시간개방,개인(윤원상),0,0,,,0,공중화장실,0,127.5321154,0,경기도 여주시 금사면 이포로 3,0,0,37.39073399,0,Sep-89,2018-08-20
이포나루주유소,N,0,영업시간개방,개인(이종관),0,0,,,0,공중화장실,0,127.5262864,0,경기도 여주시 금사면 이여로 1197,0,0,37.38524948,0,Nov-97,2018-08-20
문장주유소,N,0,영업시간개방,개인(홍문대),2,0,,,1,공중화장실,1,127.5166938,0,경기도 여주시 흥천면 이여로 924,0,0,37.36297182,0,Feb-94,2018-08-20
외사주유소,N,0,영업시간개방,법인(현대오일뱅크),0,0,,,0,공중화장실,0,127.5014323,0,경기도 여주시 흥천면 이여로 742,0,0,37.35351554,0,Jan-91,2018-08-20
태양주유소,N,0,영업시간개방,개인(전태순),2,0,,,2,공중화장실,1,127.5261935,0,경기도 여주시 흥천면 흥천로 634,0,0,37.34091265,0,Nov-96,2018-08-20
흥천주유소,N,0,영업시간개방,개인,1,0,,,1,공중화장실,0,127.5479166,0,경기도 여주시 흥천면 효자로 87,0,0,37.32998738,0,Sep-90,2018-08-20
삼강주유소,N,0,영업시간개방,개인,2,0,,,1,공중화장실,1,127.5560032,0,경기도 여주시 흥천면 흥천로 1,0,0,37.29917791,0,May-88,2018-08-20
능서주유소,N,0,영업시간개방,법인(현대오일뱅크),1,0,,,1,공중화장실,1,127.5874011,0,경기도 여주시 능서면 중부대로 2545-6,0,0,37.29893975,0,Nov-90,2018-08-20
장승휴게소(구 참숯마을),N,0,영업시간개방,개인(신규련),4,1,,,4,공중화장실,3,127.6006786,0,경기도 여주시 능서면 중부대로 2661,0,0,37.29840817,0,17-May,2018-08-20
영릉주유소,N,0,영업시간개방,개인(이주경),2,0,,,2,공중화장실,1,127.607645,0,경기도 여주시 능서면 중부대로 2710-16,0,0,37.29681564,0,Jan-95,2018-08-20
SK산북바다주유소(구 산북주유소),N,0,영업시간개방,개인,1,0,,,1,공중화장실,1,127.4309664,0,경기도 여주시 산북면 광여로 1101,0,0,37.39695564,0,Mar-98,2018-08-20
금강주유소,N,0,영업시간개방,개인(원성훈),0,0,,,0,공중화장실,0,127.6012847,0,경기도 여주시 여주남로 377  (연라동),0,0,37.25778321,0,Jan-92,2018-08-20
세창주유소,N,0,영업시간개방,개인(한삼덕),2,0,,,1,공중화장실,2,127.6026105,0,경기도 여주시 여주남로 312  (연라동),0,0,37.26345295,0,Oct-97,2018-08-20
탑골주유소,N,0,영업시간개방,법인(현대오일뱅크),1,0,,,1,공중화장실,1,127.6113858,0,경기도 여주시 여주남로 158  (연라동),0,0,37.27462756,0,May-91,2018-08-20
청기와주유소,N,0,영업시간개방,개인(김두호),0,0,,,0,공중화장실,0,127.6146435,0,경기도 여주시 여주남로 48  (월송동),0,0,37.28424446,0,Mar-93,2018-08-20
한빛주유소,N,0,영업시간개방,개인,1,0,,,1,공중화장실,1,127.6313749,0,경기도 여주시 영릉로 38  (창동),0,0,37.29092849,0,Feb-00,2018-08-20
터미널주유소,N,0,영업시간개방,개인(석주현),1,0,,,2,공중화장실,1,127.6349002,0,경기도 여주시 세종로 129  (홍문동),0,0,37.28636126,0,Jan-00,2018-08-20
교리주유소,N,0,영업시간개방,개인(홍은숙),1,0,,,2,공중화장실,1,127.6381769,0,경기도 여주시 세종로 315  (교동),0,0,37.27002788,0,Dec-89,2018-08-20
명성황후생가화장실,N,1,24시간,경기도 여주시청,4,1,031-887-2605,경기도 여주시 능현동 246번지,5,공중화장실,2,127.6557824,0,경기도 여주시 능현동 246번지,0,0,37.25958428,1,Apr-00,2018-08-20
행복주유소,N,0,영업시간개방,개인,2,0,,,1,공중화장실,1,127.6492948,0,경기도 여주시 장여로 1705  (점봉동),0,0,37.24865633,0,Nov-92,2018-08-20
남한강주유소,N,0,영업시간개방,개인(강남선),2,0,,,2,공중화장실,1,127.6427098,0,경기도 여주시 세종로 432  (점봉동),0,0,37.26002359,0,Dec-91,2018-08-20
흥천면체육공원화장실,N,0,24시간,경기도 여주시청,3,1,031-887-2605,,3,공중화장실,3,127.5484721,0,경기도 여주시 흥천면 효자로 94,0,0,37.33066237,1,17-Oct,2018-08-20
가남공중화장실,N,0,24시간,경기도 여주시청,3,1,031-887-2605,,5,공중화장실,2,127.5453211,0,경기도 여주시 가남읍 태평중앙2길 7,0,0,37.20236295,1,17-Dec,2018-08-20
가남체육공원화장실,N,1,24시간,경기도 여주시청,8,1,031-887-2605,,3,공중화장실,4,127.534908,0,경기도 여주시 가남읍 대명산길 98,0,0,37.20166797,2,17-May,2018-08-20
금사체육공원화장실,N,1,24시간,경기도 여주시청,5,1,031-887-2605,,5,공중화장실,2,127.5322764,0,경기도 여주시 금사면 이여로 1278,0,0,37.38923038,1,17-Apr,2018-08-20
점동공중화장실,N,0,24시간,경기도 여주시청,0,1,031-887-2605,경기도 여주시 점동면 청안리604번지 3호,0,공중화장실,0,127.6548062,0,경기도 여주시 점동면 청안리604번지 3호,0,0,37.20303015,0,Apr-90,2018-08-20
금은모래(대형주차장옆)화장실,N,1,24시간,경기도 여주시청,8,1,031-887-2605,경기도 여주시 연양동 332번지,6,공중화장실,5,127.6641047,0,경기도 여주시 연양동 332번지,0,0,37.29277847,1,Dec-91,2018-08-20
제일주유소,N,0,영업시간개방,개인(이성주),0,1,,,1,공중화장실,0,127.6410711,0,경기도 여주시 여흥로 157-1  (상동),0,0,37.29542473,0,17-Apr,2018-08-20
광대리농촌체험마을화장실,N,0,24시간,마을공동협의체,3,0,,,5,공중화장실,2,127.5747581,0,경기도 여주시 능서면 광대1길 6,0,0,37.26310129,1,17-Apr,2018-08-20
월드시네마화장실,N,0,영업시간개방,개인,8,1,,,5,공중화장실,3,127.6359936,0,경기도 여주시 세종로79번길 8  (홍문동),0,0,37.29033071,1,Sep-00,2018-08-20
영월루공원,N,1,24시간,경기도 여주시청,4,1,031-887-2605,경기도 여주시 상동 산 36번지,4,공중화장실,2,127.6449032,0,경기도 여주시 상동 산 36번지,0,0,37.28668562,1,17-Jan,2018-08-20
시외버스터미널,N,1,24시간,성일건설,2,1,,,2,공중화장실,2,127.6355933,0,경기도 여주시 세종로 69  (홍문동),0,0,37.29153302,1,Jan-92,2018-08-20
로데오죤,N,1,영업시간개방,로데오상인회,9,1,,,2,공중화장실,2,127.6373076,0,경기도 여주시 세종로 278  (교동),0,0,37.27336636,1,17-Jan,2018-08-20
여주홈마트,N,0,영업시간개방,개인(정완균),1,1,,,3,공중화장실,2,127.6355733,0,경기도 여주시 세종로 73  (홍문동),0,0,37.29130968,0,17-Jan,2018-08-20
세종국악당,N,1,24시간,경기도 여주시청,7,1,031-887-2605,,4,공중화장실,1,127.6246801,0,경기도 여주시 영릉로 125  (하동),0,0,37.29740813,1,17-Jan,2018-08-20
여주보건소,N,1,24시간,경기도 여주시청,2,1,031-887-2605,,2,공중화장실,1,127.640392,0,경기도 여주시 여흥로160번길 14  (상동),0,0,37.29461028,1,17-Jan,2018-08-20
여흥동사무소,N,1,24시간,경기도 여주시청,0,1,031-887-2605,,1,공중화장실,2,127.6396281,0,경기도 여주시 여흥로 148  (상동),0,0,37.29496401,1,17-Jan,2018-08-20
여주시 세종도서관,N,2,24시간,경기도 여주시청,8,1,031-887-2605,,2,공중화장실,4,127.6246801,0,경기도 여주시 영릉로 125  (하동),0,0,37.29740813,2,17-Jan,2018-08-20
여주시청,N,1,24시간,경기도 여주시청,6,1,031-887-2605,,1,공중화장실,2,127.6366239,0,경기도 여주시 세종로 1  (홍문동),0,0,37.29821307,1,17-Jan,2018-08-20
점동면사무소,N,1,24시간,경기도 여주시청,4,1,031-887-2605,,3,공중화장실,3,127.6622982,0,경기도 여주시 점동면 청안로 132,0,0,37.20601238,1,17-Jan,2018-08-20
한국노총중앙연수원(본관),N,0,영업시간개방,한국노총,9,1,,경기도 여주시 점동면 덕평리산 3번지,3,공중화장실,6,127.6549433,0,경기도 여주시 점동면 덕평리산 3번지,0,0,37.19334145,0,17-Oct,2018-08-20
대교주유소,N,0,영업시간개방,개인(최한욱),1,0,,,1,공중화장실,1,127.5444776,0,경기도 여주시 대신면 여양로 2012,0,0,37.40562008,0,17-May,2018-08-20
금당주유소,N,0,영업시간개방,개인(이봉희),2,0,,,2,공중화장실,1,127.6839559,0,경기도 여주시 북내면 당전로 27,0,0,37.32742309,0,17-May,2018-08-20
능서체육공원,N,1,24시간,경기도 여주시청,4,1,031-887-2605,,6,공중화장실,4,127.5857927,0,경기도 여주시 능서면 능서공원길 101,0,0,37.29514179,1,17-Jan,2018-08-20
오산주유소,N,0,영업시간개방,개인(임진수),0,0,,,0,공중화장실,0,127.5576558,0,경기도 여주시 가남읍 양화로 150,0,0,37.23638276,0,17-Jan,2018-08-20
한일주유소,N,0,영업시간개방,개인(안석환),2,0,,,1,공중화장실,2,127.5175234,0,경기도 여주시 흥천면 이여로 1041,0,0,37.37331547,0,Oct-89,2018-08-20
흥천태양주유소,N,0,영업시간개방,개인(전태순),2,0,,,2,공중화장실,1,127.5261935,0,경기도 여주시 흥천면 흥천로 634,0,0,37.34091265,0,Nov-96,2018-08-20
한길주유소화장실,N,0,영업시간개방,개인,1,1,,,1,공중화장실,1,127.672284,0,경기도 여주시 신륵로 212  (천송동),0,0,37.30401667,0,Nov-00,2018-08-20
한길주유소SK,N,0,영업시간개방,한길주유소,2,0,,,2,공중화장실,2,127.5419934,0,경기도 여주시 가남읍 경충대로 1394,0,0,37.21209503,0,17-Nov,2018-08-20
웰빙캠핑장,N,1,24시간,서울국토지방관리청,4,1,,,4,공중화장실,2,127.5472774,0,경기도 여주시 대신면 여양로 1933,0,0,37.39798461,1,17-Nov,2018-08-20
오토캠핑장,N,1,24시간,서울지방국토관리청,4,1,,경기도 여주시 대신면 당남리318번지,4,공중화장실,2,127.5425236,0,경기도 여주시 대신면 당남리318번지,0,0,37.3871295,1,17-Nov,2018-08-20
가산지구휴게소,N,0,24시간,서울지방국토관리청,4,1,,경기도 여주시 대신면 천남리680번지,3,공중화장실,2,127.6126126,0,경기도 여주시 대신면 천남리680번지,0,0,37.32692018,0,17-Dec,2018-08-20
대림동산,N,1,24시간,서울지방국토관리청,12,1,,,10,공중화장실,4,127.5472774,0,경기도 여주시 대신면 여양로 1933,0,0,37.39798461,1,17-Nov,2018-08-20
여주보휴게소,N,1,24시간,서울지방국토관리청,3,1,,,4,공중화장실,2,127.6042207,0,경기도 여주시 능서면 영릉로 560,0,0,37.3266714,1,17-Oct,2018-08-20
강천보휴게소,N,1,24시간,서울지방국토관리청,5,1,,,7,공중화장실,4,127.6800689,0,경기도 여주시 신단1길 83  (단현동),0,0,37.27769482,1,17-Nov,2018-08-20
강천관리사무소,N,1,24시간,서울지방국토관리청,4,1,,,7,공중화장실,3,127.7079365,0,경기도 여주시 강천면 강천리길 88,0,0,37.23474357,1,17-Dec,2018-08-20
외평리(이포보) 공중화장실,N,0,24시간,서울지방국토관리청,2,1,,경기도 여주시 금사면 외평리60번지 4호,4,공중화장실,3,127.5359762,0,경기도 여주시 금사면 외평리60번지 4호,0,0,37.40452005,1,17-Dec,2018-08-20
도전리 공중화장실,N,1,24시간,한국농어촌공사 원주지사,1,1,,,1,공중화장실,0,127.7674473,0,경기도 여주시 강천면 능이마을길 9,0,0,37.30243949,1,17-Apr,2018-08-20
굴암리 공중화장실,N,1,24시간,경기도 여주시청,3,1,031-887-2605,경기도 여주시 강천면 굴암리58번지,3,공중화장실,1,127.7008336,0,경기도 여주시 강천면 굴암리58번지,0,0,37.23923689,1,17-Jan,2018-08-20
현암리 법무지구 공중화장실,N,1,24시간,경기도 여주시청,3,1,031-887-2605,경기도 여주시 현암동 622번지 5호,4,공중화장실,1,127.6304621,0,경기도 여주시 현암동 622번지 5호,0,0,37.31397789,1,17-Jul,2018-08-20
하동시장 1층,N,0,24시간,하리시장번영회,3,1,,,6,공중화장실,3,127.6316313,0,경기도 여주시 여흥로57번길 20,0,0,37.2989282,1,Nov-82,2018-08-20
하동시장 B동,N,0,24시간,하리시장번영회,2,1,,,3,공중화장실,2,127.6319953,0,경기도 여주시 여흥로11번길 53,0,0,37.29822346,1,Nov-82,2018-08-20
하동시장 C동,N,0,24시간,하리시장번영회,2,1,,,3,공중화장실,2,127.6319953,0,경기도 여주시 여흥로11번길 53,0,0,37.29822346,1,Nov-82,2018-08-20
홍문동 공중화장실,N,0,24시간,개인(서정화),2,1,,,2,공중화장실,2,127.6374555,0,경기도 여주시 세종로13번길 4,0,0,37.29625158,0,Nov-82,2018-08-20
서여주(양평방향)휴게소,N,1,24시간,한국도로공사,2,1,,경기도 여주시 매류리 1-14,7,공중화장실,4,127.5796916,1,경기도 여주시 매류리 1-14,1,1,37.27901823,1,17-Aug,2018-08-20
서여주(마산방향)휴게소,N,1,24시간,한국도로공사,4,1,,경기도 여주시 매류리 1-14,11,공중화장실,6,127.5796916,1,경기도 여주시 매류리 1-14,1,1,37.27901823,1,17-Aug,2018-08-20
여주역,N,1,24시간,철도청,3,1,,,9,공중화장실,3,127.6286883,1,경기도 여주시 교동로 80,1,1,37.28248398,1,17-Sep,2018-08-20
세종대왕역,N,1,24시간,철도청,1,1,,,4,공중화장실,1,127.5707251,1,경기도 여주시 능서면 양화로 877,1,1,37.29393595,1,17-Sep,2018-08-20
산북체육공원,N,1,24시간,경기도 여주시청,2,0,031-887-2605,,5,공중화장실,3,127.4451515,1,경기도 여주시 산북면 금품1로 36,0,0,37.40087476,1,17-Dec,2018-08-20
대신체육공원,N,1,24시간,경기도 여주시청,2,0,031-887-2605,,6,공중화장실,3,127.5808597,0,경기도 여주시 대신면 여양로 1500,0,0,37.37339618,1,17-Feb,2018-08-20
능서면사무소,N,0,24시간,경기도 여주시청,4,0,031-887-2605,,2,공중화장실,2,127.5734642,0,경기도 여주시 능서면 번도1길 2-9,0,0,37.29998481,0,17-Jan,2018-08-20
대신면사무소,N,0,24시간,경기도 여주시청,4,0,031-887-2605,경기도 여주시 대신면 율촌리390번지,3,공중화장실,3,127.5864811,0,경기도 여주시 대신면 율촌리390번지,0,0,37.37502631,0,17-Jan,2018-08-20
산북면사무소,N,0,24시간,경기도 여주시청,3,0,031-887-2605,경기도 여주시 산북면 상품리121번지 3호,3,공중화장실,2,127.4431189,0,경기도 여주시 산북면 상품리121번지 3호,0,0,37.40170052,0,Nov-93,2018-08-20
오학동사무소,N,1,24시간,경기도 여주시청,1,0,031-887-2605,,1,공중화장실,2,127.6445052,0,경기도 여주시 여양로 313,0,0,37.30982242,1,Jan-95,2018-08-20
중앙동사무소,N,0,24시간,경기도 여주시청,2,0,031-887-2605,,2,공중화장실,2,127.6289495,0,경기도 여주시 여흥로11번길 26,0,0,37.2986938,0,Mar-87,2018-08-20
가남읍사무소,N,0,24시간,경기도 여주시청,4,0,031-887-2605,,3,공중화장실,2,127.5449957,0,경기도 여주시 가남읍 태평중앙1길 20,0,0,37.20159676,0,17-Jan,2018-08-20
금사면사무소,N,0,24시간,경기도 여주시청,4,0,031-887-2605,,2,공중화장실,2,127.5333616,0,경기도 여주시 금사면 이포로 27,0,0,37.39258086,0,17-Jan,2018-08-20
세종대왕유적관리소,N,1,24시간,문화재청,3,1,,,10,공중화장실,2,127.6113333,1,경기도 여주시 능서면 영릉로 269-10,1,1,37.30493469,1,17-Dec,2018-08-20
