화장실명,남녀공용화장실여부,남성용-장애인용대변기수,개방시간,관리기관명,남성용-대변기수,남성용-장애인용소변기수,전화번호,소재지지번주소,여성용-대변기수,구분,남성용-소변기수,경도,여성용-어린이용대변기수,소재지도로명주소,남성용-어린이용대변기수,남성용-어린이용소변기수,위도,여성용-장애인용대변기수,설치년도,데이터기준일자
주차장,N,0,연중무휴,전라북도 군산시 교통행정과,4,0,063-454-3811,전라북도 군산시 해망동1000-9(수산물센터공영주차장),8,공중화장실,3,126.70398,0,,0,0,35.992658,0,Aug-18,2018-08-04
기타,N,0,연중무휴,전라북도 군산시 하수과,1,0,063-454-5483,전라북도 군산시 소룡동어판장길29(어판장),1,공중화장실,2,126.691574,0,전라북도 군산시 소룡동 어판장길29(어판장),0,0,35.986246,0,Jun-98,2018-08-04
공원,N,0,연중무휴,전라북도 군산시 체육진흥과,4,0,063-454-5991,전라북도 군산시 소룡동1071-3(인공암장내),4,공중화장실,3,126.687731,0,전라북도 군산시 솔꼬지1길46,0,0,35.97984,0,Jul-18,2018-08-04
체육,N,0,연중무휴,전라북도 군산시 체육진흥과,2,0,063-454-5991,전라북도 군산시 소룡동237-1(소룡시민체육공원),10,공중화장실,2,126.676061,0,,0,0,35.983317,0,May-18,2018-08-04
공원,N,0,연중무휴,전라북도 군산시 산림녹지과,3,0,063-454-2991,전라북도 군산시 소룡동산127-1(은적사체육시설),3,공중화장실,3,126.684119,0,,0,0,35.975663,0,Aug-18,2018-08-04
공원,N,0,연중무휴,전라북도 군산시 산림녹지과,1,0,063-454-2991,전라북도 군산시 소룡동1554(홀인원여관앞),1,공중화장실,1,126.677651,0,전라북도 군산시 소룡2길55,0,0,35.97366,0,Aug-18,2018-08-04
공원,N,0,연중무휴,전라북도 군산시 하수과,1,0,063-454-5483,전라북도 군산시 산북동3595(산북시영아파트뒤),1,공중화장실,1,126.676933,0,전라북도 군산시 칠성5길75,0,0,35.963254,0,Jul-96,2018-08-04
공원,N,0,연중무휴,전라북도 군산시 산림녹지과,2,0,063-454-2991,전라북도 군산시 내초동1639(내초공원),5,공중화장실,3,126.590478,0,,0,0,35.958994,0,Sep-18,2018-08-04
공원,N,0,연중무휴,전라북도 군산시 산림녹지과,2,0,063-454-2991,전라북도 군산시 소룡동1634(국가공단2호),3,공중화장실,3,126.576589,0,,0,0,35.957654,0,Jul-98,2018-08-04
공원,N,0,연중무휴,전라북도 군산시 산림녹지과,2,0,063-454-2991,전라북도 군산시 소룡동1639(국가공단3호),3,공중화장실,3,126.590501,0,,0,0,35.958928,0,Jul-98,2018-08-04
공원,N,0,연중무휴,전라북도 군산시 산림녹지과,2,0,063-454-2991,전라북도 군산시 오식도동700(분말공원),3,공중화장실,2,126.574465,0,전라북도 군산시 자유로254,0,0,35.962603,0,Jul-98,2018-08-04
공원,N,0,연중무휴,전라북도 군산시 산림녹지과,3,0,063-454-2991,전라북도 군산시 오식도동508(생말공원내),5,공중화장실,5,126.569445,0,,0,0,35.970146,0,Oct-18,2018-08-04
공원,N,0,연중무휴,전라북도 군산시 산림녹지과,3,0,063-454-2991,전라북도 군산시 오식도동864(중앙2호),5,공중화장실,3,126.549837,0,,0,0,35.95035,1,Oct-18,2018-08-04
비응도,N,1,연중무휴,전라북도 군산시 산림녹지과,5,0,063-454-2991,전라북도 군산시 비응도동36-7(비응공원2),13,공중화장실,8,126.534147,0,전라북도 군산시 새만금북로27,0,0,35.94834,1,Aug-18,2018-08-04
비응도,N,1,연중무휴,전라북도 군산시 산림녹지과,5,0,063-454-2991,전라북도 군산시 비응도동36-7(비응공원1),13,공중화장실,8,126.534147,0,전라북도 군산시 새만금북로27,0,0,35.94834,0,Aug-18,2018-08-04
주차장,N,0,연중무휴,전라북도 군산시 항만물류과,4,0,063-454-2811,전라북도 군산시 비응도동93(유란선선착장옆),7,공중화장실,3,126.526379,0,전라북도 군산시 비응도동93(유란선선착장옆),0,0,35.935357,0,Sep-18,2018-08-04
어항,N,0,연중무휴,전라북도 군산시 하수과,2,0,063-454-5483,전라북도 군산시 신시도리260(신치항),4,공중화장실,3,126.452632,0,전라북도 군산시 옥도면 새만금로1563-24,0,0,35.817129,0,Oct-18,2018-08-04
주차장,N,0,연중무휴,전라북도 군산시 문화예술과,4,0,063-454-3311,전라북도 군산시 장미동18-6(근대역사박물관옆),7,공중화장실,5,126.712587,0,전라북도 군산시 내항1길 61-1,0,0,35.990594,0,Aug-18,2018-08-04
공원,N,0,연중무휴,전라북도 군산시 관광진흥과,6,0,063-454-3361,전라북도 군산시 금동12-22(서초교옆),8,공중화장실,5,126.706023,0,전라북도 군산시 동산길5,0,0,35.990029,0,Aug-18,2018-08-04
공원,N,0,연중무휴,전라북도 군산시 하수과,1,0,063-454-5483,전라북도 군산시 나운동45-3(주공5차아파트내),1,공중화장실,1,126.708516,0,,0,0,35.968981,0,Jul-96,2018-08-04
공원,N,0,연중무휴,전라북도 군산시 하수과,2,0,063-454-5483,전라북도 군산시 나운동45-5(주공4차아파트내),2,공중화장실,2,126.709929,0,,0,0,35.967354,0,Jun-18,2018-08-04
공원,N,0,연중무휴,전라북도 군산시 산림녹지과,2,0,063-454-2991,전라북도 군산시 수송동785(오투아파트뒤),6,공중화장실,3,126.708913,0,,0,0,35.963412,0,Oct-18,2018-08-04
공원,N,0,연중무휴,전라북도 군산시 산림녹지과,2,0,063-454-2991,전라북도 군산시 수송동789-1(시립도서관부근),6,공중화장실,3,126.709737,0,전라북도 군산시 남수송5길46-2,0,0,35.962404,0,Oct-18,2018-08-04
공원,N,0,연중무휴,전라북도 군산시 체육진흥과,2,0,063-454-5991,전라북도 군산시 수송동851(체육공원),6,공중화장실,3,126.7209,0,전라북도 군산시 수송로58,0,0,35.965679,0,Oct-18,2018-08-04
공원,N,0,연중무휴,전라북도 군산시 하수과,1,0,063-454-5483,전라북도 군산시 지곡동564-1(헤세드교회앞),1,공중화장실,1,126.712336,0,,0,0,35.958371,0,Aug-96,2018-08-04
공원,N,0,연중무휴,전라북도 군산시 하수과,1,0,063-454-5483,전라북도 군산시 지곡동531(돌배개교회앞),1,공중화장실,1,126.70948,0,,0,0,35.957361,0,Aug-96,2018-08-04
공원,N,0,연중무휴,전라북도 군산시 산림녹지과,2,0,063-454-2991,전라북도 군산시 지곡동156-5(지곡코아루뒤),3,공중화장실,3,126.70732,0,,0,0,35.954665,0,Aug-18,2018-08-04
공원,N,0,연중무휴,전라북도 군산시 하수과,1,0,063-454-5483,전라북도 군산시 지곡동510-5(시민교회옆),1,공중화장실,1,126.706614,0,,0,0,35.958974,0,Jul-96,2018-08-04
공원,N,0,연중무휴,전라북도 군산시 하수과,2,0,063-454-5483,전라북도 군산시 나운동155-89(우성아파트뒤),2,공중화장실,3,126.701777,0,,0,0,35.959286,0,Jul-96,2018-08-04
공원,N,0,연중무휴,전라북도 군산시 하수과,1,0,063-454-5483,전라북도 군산시 나운동153-10(구보건소뒤),1,공중화장실,2,126.698396,0,,0,0,35.960876,0,Jul-96,2018-08-04
공원,N,0,연중무휴,전라북도 군산시 하수과,2,0,063-454-5483,전라북도 군산시 나운동1569신일아파트옆),2,공중화장실,3,126.69715,0,전라북도 군산시 의료원로163,0,0,35.959155,0,Jul-96,2018-08-04
공원,N,0,연중무휴,전라북도 군산시 산림녹지과,2,0,063-454-2991,전라북도 군산시 소룡동산120(월명공원관리소옆),3,공중화장실,3,126.696104,0,전라북도 군산시 청소년회관로84,0,0,35.980317,0,Mar-18,2018-08-04
시장,N,0,연중무휴,전라북도 군산시 지역경제과,3,0,063-454-2701,전라북도 군산시 나운동836-13(나운주공시장),8,공중화장실,4,126.695496,0,전라북도 군산시 대학로303-6,0,0,35.966455,0,May-18,2018-08-04
공원,N,0,연중무휴,전라북도 군산시 산림녹지과,3,0,063-454-2391,전라북도 군산시 나운동1072-2(나운초교뒤 주차장),6,공중화장실,4,126.691815,0,,0,0,35.973406,0,May-18,2018-08-04
공원,N,0,연중무휴,전라북도 군산시 산림녹지과,3,0,063-454-2591,전라북도 군산시 소룡동산120(나운배수지),6,공중화장실,5,126.696104,0,전라북도 군산시 청소년회관로84,0,0,35.98036,0,May-18,2018-08-04
공원,N,0,연중무휴,전라북도 군산시 산림녹지과,2,0,063-454-2791,전라북도 군산시 소룡동1544(동아아파트앞),3,공중화장실,3,126.683655,0,,0,0,35.969745,0,Jun-96,2018-08-04
공원,N,0,연중무휴,전라북도 군산시 산림녹지과,1,0,063-454-2991,전라북도 군산시 산북동3543-3(산북주공뒤),3,공중화장실,2,126.681904,0,,0,0,35.967693,0,Oct-18,2018-08-04
공원,N,0,연중무휴,전라북도 군산시 하수과,1,0,063-454-5483,전라북도 군산시 경장동494-18(명성장옆),1,공중화장실,1,126.730574,0,전라북도 군산시 백릉안2길20-1,0,0,35.972676,0,May-96,2018-08-04
시장,N,0,연중무휴,전라북도 군산시 지역경제과,2,0,063-454-2701,전라북도 군산시 경암동679-2(동부시장),3,공중화장실,3,126.728733,0,전라북도 군산시 강암2길20,0,0,35.975557,0,Aug-18,2018-08-04
기타,N,0,연중무휴,전라북도 군산시 하수과,2,0,063-454-5483,전라북도 군산시 경암동528-7(철길옆),4,공중화장실,3,126.728658,0,전라북도 군산시 경촌4길6,0,0,35.97561,0,Sep-97,2018-08-04
공원,N,0,연중무휴,전라북도 군산시 건축과,3,0,063-454-3751,전라북도 군산시 미원동236-5(미원지구),6,공중화장실,3,126.71605,0,,0,0,35.979546,0,Oct-18,2018-08-04
시장,N,0,연중무휴,전라북도 군산시 지역경제과,5,0,063-454-2701,전라북도 군산시 대명동138-3(역전시장),8,공중화장실,4,126.720817,0,전라북도 군산시 3.1로13-1,0,0,35.980998,0,Jun-18,2018-08-04
시장,N,0,연중무휴,전라북도 군산시 지역경제과,2,0,063-454-2701,전라북도 군산시 대명동138(대명시장),2,공중화장실,1,126.721178,0,전라북도 군산시 구시장로20-2,0,0,35.979371,0,Jul-18,2018-08-04
시장,N,0,연중무휴,전라북도 군산시 지역경제과,2,0,063-454-2701,전라북도 군산시 신영동19-5(신영시장),3,공중화장실,3,126.720107,0,전라북도 군산시 동신영길66,0,0,35.985805,0,Aug-18,2018-08-04
주차장,N,0,연중무휴,전라북도 군산시 교통행정과,4,0,063-454-3811,전라북도 군산시 금암동73-51(공설시장공영주차장),5,공중화장실,5,126.720774,0,,0,0,35.985287,0,May-18,2018-08-04
주차장,N,0,연중무휴,전라북도 군산시 도시계획과,2,0,063-454-3521,전라북도 군산시 개복동1-3(청소년문화공간 구경찰서),4,공중화장실,3,126.713396,0,,0,0,35.985942,0,Aug-18,2018-08-04
공원,N,0,연중무휴,전라북도 군산시 산림녹지과,3,0,063-454-2991,전라북도 군산시 금동9-3(비둘기사옆),3,공중화장실,3,126.706109,0,전라북도 군산시 군창1길12,0,0,35.992302,0,May-70,2018-08-04
공원,N,0,연중무휴,전라북도 군산시 산림녹지과,3,0,063-454-2991,전라북도 군산시 해망동998-2(수시탑아래),3,공중화장실,3,126.702626,0,전라북도 군산시 월명공원1길26,0,0,35.989626,0,Jun-73,2018-08-04
공원,N,0,연중무휴,전라북도 군산시 산림녹지과,3,0,063-454-2991,전라북도 군산시 월명동34-12(삼일탑),4,공중화장실,5,126.70168,0,,0,0,35.983397,0,Jun-18,2018-08-04
공원,N,0,연중무휴,전라북도 군산시 산림녹지과,3,0,063-454-2991,전라북도 군산시 월명동21-169(동신교회옆),5,공중화장실,3,126.706856,0,,0,0,35.983571,0,May-18,2018-08-04
시장,N,0,연중무휴,전라북도 군산시 지역경제과,1,0,063-454-2701,전라북도 군산시 명산동18-25(명산시장),2,공중화장실,2,126.709809,0,전라북도 군산시 오룡로57-4,0,0,35.982689,0,Oct-18,2018-08-04
공원,N,0,연중무휴,전라북도 군산시 산림녹지과,3,0,063-454-2991,전라북도 군산시 문화동886(구 중앙도서관),3,공중화장실,3,126.705014,0,,0,0,35.976822,0,Sep-18,2018-08-04
시장,N,0,연중무휴,전라북도 군산시 지역경제과,1,0,063-454-2701,전라북도 군산시 문화동917-1(문화시장),2,공중화장실,2,126.701928,0,,0,0,35.973611,0,Jul-18,2018-08-04
시장,N,0,연중무휴,전라북도 군산시 지역경제과,2,0,063-454-2701,전라북도 군산시 대야면산월리401-3(대야시장),3,공중화장실,3,126.817214,0,전라북도 군산시 대야면 대야시장로19,0,0,35.945436,0,Jun-18,2018-08-04
공원,N,0,연중무휴,전라북도 군산시 산림녹지과,2,0,063-454-2991,전라북도 군산시 회현면세장리산112(축동마을),3,공중화장실,2,126.74637,0,,0,0,35.922599,0,Aug-18,2018-08-04
공원,N,0,연중무휴,전라북도 군산시 산림녹지과,3,0,063-454-2991,전라북도 군산시 옥산면옥산리683-1(군산저수지),5,공중화장실,3,126.746544,0,전라북도 군산시 옥산신성길53,0,0,35.936693,0,Oct-18,2018-08-04
공원,N,0,연중무휴,전라북도 군산시 하수과,1,0,063-454-5483,전라북도 군산시 조촌동 897(시청앞),1,공중화장실,1,126.736813,0,,0,0,35.966133,0,Jul-96,2018-08-04
공원,N,0,연중무휴,전라북도 군산시 하수과,1,0,063-454-5483,전라북도 군산시 조촌동890-4(매매상 앞),1,공중화장실,2,126.735059,0,,0,0,35.967453,0,Aug-96,2018-08-04
공원,N,0,연중무휴,전라북도 군산시 하수과,1,0,063-454-5483,전라북도 군산시 조촌동876(법원옆),1,공중화장실,2,126.73943,0,전라북도 군산시 검다메안길22,0,0,35.968961,0,Aug-96,2018-08-04
약수터화장실,N,0,연중무휴,전라북도 군산시 산림녹지과,2,0,063-454-2991,전라북도 군산시 구암동48-10(오리알약수터),4,공중화장실,2,126.758662,0,전라북도 군산시 잠두1길65,0,0,35.978999,0,Apr-18,2018-08-04
공원,N,0,연중무휴,전라북도 군산시 하수과,1,0,063-454-5483,전라북도 군산시 조촌동 867-15(시청뒤),1,공중화장실,2,126.736764,0,,0,0,35.96903,0,Aug-96,2018-08-04
공원,N,0,연중무휴,전라북도 군산시 하수과,1,0,063-454-5483,전라북도 군산시 조촌동852(농협뒤),1,공중화장실,1,126.736747,0,전라북도 군산시 조촌5길44,0,0,35.972465,0,Aug-96,2018-08-04
공원,N,0,연중무휴,전라북도 군산시 하수과,1,0,063-454-5483,전라북도 군산시 조촌동848-5(노바파크옆),1,공중화장실,2,126.735224,0,전라북도 군산시 조촌안5길69,0,0,35.970747,0,Aug-96,2018-08-04
공원,N,0,연중무휴,전라북도 군산시 하수과,1,0,063-454-5483,전라북도 군산시 조촌동 845(소망교회앞),1,공중화장실,1,126.73492,0,전라북도 군산시 조촌안4길 23-8,0,0,35.973674,0,Aug-96,2018-08-04
공원,N,0,연중무휴,전라북도 군산시 하수과,1,0,063-454-5483,전라북도 군산시 조촌동847(수협지점뒤),1,공중화장실,1,126.734927,0,전라북도 군산시 조촌5길12,0,0,35.972477,0,Aug-96,2018-08-04
공원,N,0,연중무휴,전라북도 군산시 산림녹지과,3,0,063-454-2991,전라북도 군산시 내흥동903(연안도로변,5,공중화장실,4,126.752303,0,,0,0,35.99983,0,Sep-18,2018-08-04
공원,N,0,연중무휴,전라북도 군산시 체육진흥과,3,0,063-454-5591,전라북도 군산시 내흥동984(축구장내),3,공중화장실,3,126.764219,0,,0,0,35.995625,0,May-18,2018-08-04
공원,N,1,연중무휴,전라북도 군산시 산림녹지과,3,0,063-454-2991,전라북도 군산시 성산면성덕리487-19(금강공원1),5,공중화장실,3,126.756183,0,전라북도 군산시 성산면 강변로 477,0,0,36.011497,1,Jul-99,2018-08-04
공원,N,1,연중무휴,전라북도 군산시 산림녹지과,3,0,063-454-2991,전라북도 군산시 성산면성덕리461-13(금강공원2),5,공중화장실,3,126.758055,0,,0,0,36.010954,1,Jul-99,2018-08-04
하구둑,N,0,연중무휴,전라북도 군산시 관광진흥과,3,0,063-454-3361,전라북도 군산시 성산면 성덕리437(하구둑),5,공중화장실,6,126.758017,0,전라북도 군산시 성산면 철새로 25,0,0,36.013487,0,Apr-18,2018-08-04
금강호2,N,0,연중무휴,전라북도 군산시 관광진흥과,5,0,063-454-3361,전라북도 군산시 성산면 성덕리 422-1(금강호),13,공중화장실,6,126.761709,0,,0,0,36.019677,0,May-18,2018-08-04
금강호1,N,0,연중무휴,전라북도 군산시 하수과,2,0,063-454-5483,전라북도 군산시 성산면성덕리415-1(금강습지공원),5,공중화장실,3,126.767661,0,,0,0,36.021926,0,Jul-18,2018-08-04
천방산,N,0,24,충청남도 서천군청,1,0,041-950-4338,충청남도 서천군 문산면 수암리 산106-1,3,간이화장실,2,126.441231,0,충청남도 서천군 문산면 판문로 706번길,0,0,36.081261,0,Jan-07,2018-02-23
천방산,N,0,24,충청남도 서천군청,1,0,041-950-4338,충청남도 서천군 문산면 수암리 산106-1,3,간이화장실,2,126.441231,0,충청남도 서천군 문산면 판문로 706번길,0,0,36.081261,0,Jan-07,2018-02-23
천방산,N,0,24,충청남도 서천군청,1,0,041-950-4338,충청남도 서천군 문산면 수암리 산106-1,3,간이화장실,2,126.441231,0,충청남도 서천군 문산면 판문로 706번길,0,0,36.081261,0,Jan-07,2018-02-23
