화장실명,남녀공용화장실여부,남성용-장애인용대변기수,개방시간,관리기관명,남성용-대변기수,남성용-장애인용소변기수,전화번호,소재지지번주소,여성용-대변기수,구분,남성용-소변기수,경도,여성용-어린이용대변기수,소재지도로명주소,남성용-어린이용대변기수,남성용-어린이용소변기수,위도,여성용-장애인용대변기수,설치년도,데이터기준일자
군위읍사무소,N,0,연중무휴,군위읍사무소,4,0,,경상북도 군위군 군위읍 동부리 324-4,2,공중화장실,4,128.5686624,0,,0,0,36.23997238,0,,2018-08-23
군위시장,N,0,연중무휴,군위읍사무소,4,0,,경상북도 군위군 군위읍 서부리 16-7,8,공중화장실,4,128.5673837,0,,0,0,36.2392142,0,,2018-08-23
힐링도시숲,N,0,연중무휴,군위군 환경산림과,2,0,,경상북도 군위군 군위읍 사직리 352,3,공중화장실,2,128.5587921,0,,0,0,36.23787751,0,,2018-08-23
군위생활체육공원,N,1,연중무휴,문화체육시설사업소,6,0,,경상북도 군위군 군위읍 서부리 476-1,16,공중화장실,12,128.5623221,0,,0,0,36.24131689,0,,2018-08-23
군위군보건소,N,0,연중무휴,군위군 보건소,12,0,,경상북도 군위군 군위읍 동부리 676-3,12,공중화장실,6,128.5697958,0,,0,0,36.22967421,0,,2018-08-23
군위인재양성원,N,0,(평일)09:00~18:00,군위군 총무과,6,0,,경상북도 군위군 군위읍 서부리 45-1,8,공중화장실,8,128.5682376,0,,0,0,36.23652495,0,,2018-08-23
군위119안전센터,N,0,연중무휴,군위119센터,3,0,,경상북도 군위군 군위읍 수서리 621-7,3,공중화장실,2,128.5604419,0,,0,0,36.20760432,0,,2018-08-23
군위등기소,N,0,연중무휴,군위등기소,3,0,,경상북도 군위군 군위읍 동부리 332-2,3,공중화장실,6,128.5695566,0,,0,0,36.24063106,0,,2018-08-23
한전군위지점,N,0,현재 재건축,한전군위지점,3,0,,경상북도 군위군 군위읍 서부리 420-1,0,공중화장실,4,128.5666368,0,,0,0,36.2385788,0,,2018-08-23
군위교육지원청,N,0,(평일)09:00~18:00,군위교육지원청,7,0,,경상북도 군위군 군위읍 동부리 230-2,6,공중화장실,9,128.5740846,0,,0,0,36.24277744,0,,2018-08-23
군위중고등학교,N,0,(평일)09:00~18:00,군위중고등학교,37,0,,경상북도 군위군 군위읍 정리 292-1,55,공중화장실,27,128.5703559,0,,0,0,36.24544683,0,,2018-08-23
군위우체국,N,0,(평일)09:00~18:00,군위우체국,2,0,,경상북도 군위군 군위읍 서부리 56-1,3,공중화장실,4,128.566925,0,,0,0,36.23563024,0,,2018-08-23
고속도로군위(상)휴게소,N,1,연중무휴,중앙고속도로 군위(상)휴게소,12,0,,경상북도 군위군 군위읍 오곡리 446-2,33,공중화장실,16,128.5769479,0,,0,0,36.26746207,1,,2018-08-23
고속도로군위(하)휴게소,N,1,연중무휴,중앙고속도로 군위(하)휴게소,12,0,,경상북도 군위군 군위읍 오곡리 410-1,33,공중화장실,16,128.5743943,0,,0,0,36.26552774,1,,2018-08-23
남경주유소,Y,0,(평일주말)09:00~21:00,남경주유소,2,0,,경상북도 군위군 군위읍 오곡리 828-6,0,공중화장실,2,128.5735865,0,,0,0,36.26963293,0,,2018-08-23
군위휴게소(5번국도),N,0,연중무휴,군위휴게소,2,0,,경상북도 군위군 군위읍 정리 687,6,공중화장실,6,128.5712823,0,,0,0,36.25859783,0,,2018-08-23
군위교통,N,1,연중무휴,군위교통,2,0,,경상북도 군위군 군위읍 동부리 670-8,3,공중화장실,3,128.5686469,0,,0,0,36.23006774,0,,2018-08-23
동부주유소,N,0,(평일주말)09:00~21:00,동부주유소,2,0,,경상북도 군위군 군위읍 동부리 877,2,공중화장실,2,128.5676272,0,,0,0,36.22533773,0,,2018-08-23
청룡주유소(오곡휴게소),Y,0,(평일주말)09:00~21:00,청룡주유소,2,0,,경상북도 군위군 군위읍 오곡리 631-1,0,공중화장실,2,128.57834,0,,0,0,36.2786857,0,,2018-08-23
백령주유소,N,0,(평일주말)09:00~21:00,백령주유소,1,0,,경상북도 군위군 군위읍 정리 679,3,공중화장실,3,128.5715944,0,,0,0,36.25795936,0,,2018-08-23
유성주유소(구.희망주유소),N,0,(평일주말)09:00~21:00,유성주유소,1,0,,경상북도 군위군 군위읍 무성리 59,0,공중화장실,2,128.5744683,0,,0,0,36.18534001,0,,2018-08-23
군위버스터미널 옆(군위교통 옆),N,0,연중무휴,군위읍사무소,1,0,,경상북도 군위군 군위읍 동부리 670-3,1,공중화장실,1,128.5688501,0,,0,0,36.22977312,0,,2018-08-23
세교주유소,N,0,(평일주말)09:00~21:00,세교주유소,1,0,,경상북도 군위군 군위읍 금구리 877-6,1,공중화장실,2,128.5633978,0,,0,0,36.20259887,0,,2018-08-23
고속도로군위(상)휴게소 주유소,N,0,(평일주말)09:00~21:00,고속도로군위(상)휴게소 주유소,2,0,,경상북도 군위군 군위읍 오곡리 산67-1,2,공중화장실,3,128.5754989,0,,0,0,36.26512392,0,,2018-08-23
군위휴게소(5번국도) 주유소,N,0,(평일주말)09:00~21:00,군위휴게소(5번국도) 주유소,2,0,,경상북도 군위군 군위읍 정리 687,6,공중화장실,3,128.5712823,0,,0,0,36.25859783,0,,2018-08-23
소보면사무소,N,0,연중무휴,소보면사무소,2,0,,경상북도 군위군 소보면 송원리 619,3,공중화장실,3,128.4753438,0,,0,0,36.25506928,0,,2018-08-23
소보시장,N,0,연중무휴,소보면사무소,1,0,,경상북도 군위군 소보면 송원리 722,2,공중화장실,3,128.4790914,0,,0,0,36.25556725,0,,2018-08-23
소보보건지소,N,0,연중무휴,소보보건지소,2,0,,경상북도 군위군 소보면 송원리 703-5,2,공중화장실,2,128.4786834,0,,0,0,36.25564078,0,,2018-08-23
소보우체국,N,0,(평일)09:00~18:00,소보우체국,2,0,,경상북도 군위군 소보면 송원리 695-4,2,공중화장실,2,128.4788325,0,,0,0,36.25623367,0,,2018-08-23
소보치안센터,N,0,연중무휴,소보치안센터,1,0,,경상북도 군위군 소보면 송원리 678-7,1,공중화장실,0,128.4768738,0,,0,0,36.25525945,0,,2018-08-23
송원초등학교,N,0,(평일)09:00~18:00,송원초등학교,2,0,,경상북도 군위군 소보면 송원리 675,4,공중화장실,4,128.4763774,0,,0,0,36.25371207,0,,2018-08-23
소보농협주유소,Y,0,(평일주말)09:00~21:00,소보농협주유소,1,0,,경상북도 군위군 소보면 송원리 689-5,0,공중화장실,0,128.4771826,0,,0,0,36.25582153,0,,2018-08-23
간동유원지,N,1,연중무휴,효령면사무소,2,0,,경상북도 군위군 효령면 성리 715,5,공중화장실,2,128.584266,0,,0,0,36.17862187,1,,2018-08-23
효령면사무소,N,0,연중무휴,효령면사무소,2,0,,경상북도 군위군 효령면 중구리 204-1,2,공중화장실,2,128.5853092,0,,0,0,36.15669684,0,,2018-08-23
효령우체국,N,0,(평일)09:00~18:00,효령우체국,1,0,,경상북도 군위군 효령면 중구리 209-8,1,공중화장실,1,128.5843603,0,,0,0,36.15658685,0,,2018-08-23
고매초등학교,N,0,(평일)09:00~18:00,고매초등학교,4,0,,경상북도 군위군 효령면 고곡리 929,6,공중화장실,4,128.5825154,0,,0,0,36.09704434,0,,2018-08-23
효령중고등학교,N,0,(평일)09:00~18:00,효령중고등학교,9,0,,경상북도 군위군 효령면 중구리 355,13,공중화장실,13,128.5785179,0,,0,0,36.15470682,0,,2018-08-23
효령초등학교,N,0,(평일)09:00~18:00,효령초등학교,8,0,,경상북도 군위군 효령면 중구리 171-1,10,공중화장실,8,128.5869514,0,,0,0,36.1563615,0,,2018-08-23
효령치안센터,Y,0,연중무휴,효령치안센터,1,0,,경상북도 군위군 효령면 중구리 194-2,0,공중화장실,0,128.5870968,0,,0,0,36.15607482,0,,2018-08-23
군위농협하나로유통센터,N,0,(평일주말)09:00~21:00,군위농협하나로유통센터,5,0,,경상북도 군위군 효령면 고곡리 438,9,공중화장실,0,128.5732912,0,,0,0,36.11843931,0,,2018-08-23
효령버스정류소,Y,0,연중무휴,효령버스정류소,1,0,,경상북도 군위군 효령면 중구리 195-4,0,공중화장실,1,128.5865213,0,,0,0,36.15597071,0,,2018-08-23
효령주유소,N,0,(평일주말)09:00~21:00,효령주유소,2,0,,경상북도 군위군 효령면 고곡리 471,2,공중화장실,2,128.5752949,0,,0,0,36.11533477,0,,2018-08-23
중부주유소,N,0,(평일주말)09:00~21:00,중부주유소,1,0,,경상북도 군위군 효령면 중구리 137-6,2,공중화장실,2,128.5869086,0,,0,0,36.15357585,0,,2018-08-23
오천주유소,N,0,(평일주말)09:00~21:00,오천주유소,1,0,,경상북도 군위군 효령면 오천리 89,1,공중화장실,2,128.6113041,0,,0,0,36.18548052,0,,2018-08-23
석굴암주차장,N,0,연중무휴,부계면사무소,2,0,,경상북도 군위군 부계면 남산리 317-1,5,공중화장실,3,128.6431129,0,,0,0,36.0479904,0,,2018-08-23
석굴암솔밭,N,0,연중무휴,부계면사무소,1,0,,경상북도 군위군 부계면 남산리 267,3,공중화장실,2,128.641591,0,,0,0,36.0478022,0,,2018-08-23
동산주차장(분양부지),N,0,연중무휴,부계면사무소,1,0,,경상북도 군위군 부계면 동산리 1651,2,공중화장실,2,128.6451605,0,,0,0,36.04934282,0,,2018-08-23
동산계곡 주차장,N,0,연중무휴,부계면사무소,2,0,,경상북도 군위군 부계면 동산리 319-1,4,공중화장실,2,128.6686765,0,,0,0,36.04074196,0,,2018-08-23
대율대청,N,0,연중무휴,부계면사무소,1,0,,경상북도 군위군 부계면 대율리 747,2,공중화장실,1,128.6538592,0,,0,0,36.05926507,0,,2018-08-23
대율교,N,0,연중무휴,부계면사무소,2,0,,경상북도 군위군 부계면 대율리 559,4,공중화장실,2,128.6563201,0,,0,0,36.06463773,0,,2018-08-23
부계파출소,N,0,연중무휴,부계파출소,1,0,,경상북도 군위군 부계면 창평리 1011-1,1,공중화장실,1,128.6656061,0,,0,0,36.09888434,0,,2018-08-23
부계보건지소,N,0,연중무휴,부계보건지소,2,0,,경상북도 군위군 부계면 창평리 854-1,2,공중화장실,2,128.6622053,0,,0,0,36.10274143,0,,2018-08-23
부계우체국,Y,0,(평일)09:00~18:00,부계우체국,1,0,,경상북도 군위군 부계면 창평리 895-2,0,공중화장실,1,128.6639135,0,,0,0,36.10054786,0,,2018-08-23
부계중학교,N,0,(평일)09:00~18:00,부계중학교,4,0,,경상북도 군위군 부계면 춘산리 560,8,공중화장실,4,128.6553539,0,,0,0,36.07848487,0,,2018-08-23
부계초등학교,N,0,(평일)09:00~18:00,부계초등학교,3,0,,경상북도 군위군 부계면 창평리 847,5,공중화장실,6,128.6623614,0,,0,0,36.10318982,0,,2018-08-23
삼국유사군위휴게소(상주방향),N,0,연중무휴,상주영천고속도로㈜,12,0,,경상북도 군위군 부계면 창평리 산98-4,34,공중화장실,22,128.6963501,0,,0,0,36.07910093,0,,2018-08-23
대율리 화장실,N,1,연중무휴,부계면사무소,1,0,,경상북도 군위군 부계면 대율리 666-1,3,공중화장실,2,128.655255,0,,0,0,36.06126789,1,,2018-08-23
우보면사무소,N,0,연중무휴,우보면사무소,1,0,,경상북도 군위군 우보면 이화리 1193-2,2,공중화장실,1,128.6618043,0,,0,0,36.19492902,0,,2018-08-23
우보시장,N,1,연중무휴,우보면사무소,1,0,,경상북도 군위군 우보면 이화리 1282,2,공중화장실,3,128.6642266,0,,0,0,36.19487373,0,,2018-08-23
우보보건지소,N,1,연중무휴,우보보건지소,1,0,,경상북도 군위군 우보면 이화리 1192,2,공중화장실,2,128.661707,0,,0,0,36.19537371,0,,2018-08-23
우보우체국,N,0,(평일)09:00~18:00,우보우체국,1,0,,경상북도 군위군 우보면 이화리 1197,1,공중화장실,1,128.6627952,0,,0,0,36.19489363,0,,2018-08-23
우보중학교,N,0,(평일)09:00~18:00,우보중학교,2,0,,경상북도 군위군 우보면 이화리 1683-24,6,공중화장실,8,128.6673256,0,,0,0,36.18709565,0,,2018-08-23
우보초등학교,N,0,(평일)09:00~18:00,우보초등학교,6,0,,경상북도 군위군 우보면 이화리 1566-1,12,공중화장실,8,128.6607776,0,,0,0,36.19495409,0,,2018-08-23
이화주유소,N,0,(평일주말)09:00~21:00,이화주유소,1,0,0,경상북도 군위군 우보면 이화리 792,1,공중화장실,1,128.6676899,0,,0,0,36.19378746,0,,2018-08-23
우보S-Oil주유소,N,0,(평일주말)09:00~21:00,우보S-Oil주유소,1,0,0,경상북도 군위군 우보면 이화리 1301-3,1,공중화장실,1,128.6634965,0,,0,0,36.19462076,0,,2018-08-23
의흥면사무소,N,0,연중무휴,의흥면사무소,2,0,,경상북도 군위군 의흥면 읍내리 420-16,2,공중화장실,3,128.7151881,0,,0,0,36.17578648,0,,2018-08-23
의흥시장,N,0,연중무휴,의흥면사무소,1,0,,경상북도 군위군 의흥면 읍내리 594-1,3,공중화장실,3,128.7163217,0,,0,0,36.17415548,0,,2018-08-23
의흥보건지소,N,0,연중무휴,의흥보건지소,2,0,,경상북도 군위군 의흥면 읍내리 468-8,2,공중화장실,2,128.7137989,0,,0,0,36.17630017,0,,2018-08-23
의흥우체국,N,0,(평일)09:00~18:00,의흥우체국,1,0,,경상북도 군위군 의흥면 읍내리 420-23,2,공중화장실,4,128.7154065,0,,0,0,36.17560674,0,,2018-08-23
의흥119안전센터,N,0,연중무휴,의흥119안전센터,2,0,,경상북도 군위군 의흥면 읍내리 468-1,3,공중화장실,2,128.7138956,0,,0,0,36.17665562,0,,2018-08-23
의흥중학교,N,0,(평일)09:00~18:00,의흥중학교,6,0,,경상북도 군위군 의흥면 읍내리 197,13,공중화장실,10,128.7222468,0,,0,0,36.17452452,0,,2018-08-23
의흥초등학교,N,0,(평일)09:00~18:00,의흥초등학교,6,0,,경상북도 군위군 의흥면 읍내리 283,10,공중화장실,10,128.7187757,0,,0,0,36.17517274,0,,2018-08-23
의흥대추공원,N,0,연중무휴,군위군 도시새마을과,3,0,,경상북도 군위군 의흥면 수서리 663-37,4,공중화장실,2,128.6870068,0,,0,0,36.17847216,0,,2018-08-23
강변주유소,N,0,주말)09:00~21:00,강변주유소,2,0,,경상북도 군위군 의흥면 수서리 458,2,공중화장실,2,128.694238,0,,0,0,36.17465394,0,,2018-08-23
연계주유소,N,0,(평일주말)09:00~21:00,연계주유소,1,0,,경상북도 군위군 의흥면 연계리 1149-1,0,공중화장실,1,128.7440228,0,,0,0,36.16837741,0,,2018-08-23
제일주유소,N,0,(평일주말)09:00~21:00,제일주유소,1,0,,경상북도 군위군 의흥면 읍내리 252-7,0,공중화장실,1,128.7185861,0,,0,0,36.17300565,0,,2018-08-23
산성면사무소,N,0,연중무휴,산성면사무소,2,0,,경상북도 군위군 산성면 화본리 1165-2,3,공중화장실,2,128.6949892,0,,0,0,36.12281979,0,,2018-08-23
산성우체국,Y,0,(평일)09:00~18:00,산성우체국,1,0,,경상북도 군위군 산성면 화본리 867-1,1,공중화장실,1,128.6957889,0,,0,0,36.12509365,0,,2018-08-23
산성치안센터,Y,0,연중무휴,산성치안센터,2,0,,경상북도 군위군 산성면 화본리 856-3,2,공중화장실,2,128.695702,0,,0,0,36.12621944,0,,2018-08-23
화본역,N,0,연중무휴,화본역,3,0,,경상북도 군위군 산성면 화본리 1224-1,3,공중화장실,2,128.6948516,0,,0,0,36.12654866,0,,2018-08-23
삼영주유소,N,0,영업정지,삼영주유소,2,0,,경상북도 군위군 산성면 백학리 45,1,공중화장실,2,128.709612,0,,0,0,36.07351667,0,,2018-08-23
군위영천휴게소,N,0,연중무휴,상주영천고속도로㈜,12,0,,경상북도 군위군 산성면 백학리 산16-1,34,공중화장실,11,128.7093148,0,,0,0,36.07147721,0,,2018-08-23
고로면사무소,N,0,연중무휴,고로면사무소,11,0,,경상북도 군위군 고로면 학성리 397-10,11,공중화장실,10,128.7947346,0,,0,0,36.12337053,0,,2018-08-23
아미산주차장,N,0,연중무휴,군위군 환경산림과,2,0,,경상북도 군위군 고로면 양지리 59-2,5,공중화장실,3,128.8374304,0,,0,0,36.16841809,0,,2018-08-23
신비의소나무,N,0,연중무휴,고로면사무소,1,0,,경상북도 군위군 고로면 학암리 843,3,공중화장실,2,128.8758351,0,,0,0,36.17619862,0,,2018-08-23
일연폭포주차장,N,0,연중무휴,고로면사무소,1,0,,경상북도 군위군 고로면 화북리 202-1,2,공중화장실,1,128.7886089,0,,0,0,36.11909373,0,,2018-08-23
인각사,N,0,연중무휴,고로면사무소,3,0,,경상북도 군위군 고로면 화북리612,4,공중화장실,3,128.7793531,0,,0,0,36.12785316,0,,2018-08-23
고로보건지소,N,0,연중무휴,고로보건지소,2,0,,경상북도 군위군 고로면 학성리 397-10,2,공중화장실,2,128.7947346,0,,0,0,36.12337053,0,,2018-08-23
일연공원,N,0,연중무휴,군위군 환경산림과,3,0,,경상북도 군위군 고로면 화북리 53,8,공중화장실,4,128.790384,0,,0,0,36.11921138,0,,2018-08-23
고로우체국,Y,0,(평일)09:00~18:00,고로우체국,1,0,,경상북도 군위군 고로면 화수리 78-4,1,공중화장실,1,128.7575473,0,,0,0,36.12745431,0,,2018-08-23
군위댐 사무소,N,0,(평일)09:00~18:00,군위댐 사무소,5,0,,경상북도 군위군 고로면 학성리 407 외 1,4,공중화장실,4,128.794025,0,,0,0,36.12205837,0,,2018-08-23
석산초등학교,N,0,(평일)09:00~18:00,석산초등학교,1,0,,경상북도 군위군 고로면 석산리 547-1,2,공중화장실,2,128.8551155,0,,2,1,36.1749285,0,,2018-08-23
화수주유소,N,0,(평일주말)09:00~21:00,화수주유소,1,0,,경상북도 군위군 고로면 화수리 939-1,1,공중화장실,1,128.7527171,0,,0,0,36.1270169,0,,2018-08-23
고로농협주유소,N,0,(평일주말)09:00~21:00,고로농협주유소,1,0,,경상북도 군위군 고로면 학성리 397,2,공중화장실,2,128.7946664,0,,0,0,36.12388696,0,,2018-08-23
