화장실명,남녀공용화장실여부,남성용-장애인용대변기수,개방시간,관리기관명,남성용-대변기수,남성용-장애인용소변기수,전화번호,소재지지번주소,여성용-대변기수,구분,남성용-소변기수,경도,여성용-어린이용대변기수,소재지도로명주소,남성용-어린이용대변기수,남성용-어린이용소변기수,위도,여성용-장애인용대변기수,설치년도,데이터기준일자
운곡서원주차장,N,0,24시간,경상북도 경주시청,1,0,054-779-8763,경상북도 경주시 강동면 왕신리 311,1,간이화장실,1,129.302111,0,경상북도 경주시 강동면 사라길 79-19,0,0,35.941007,0,,2018-02-20
계림,N,0,24시간,경상북도 경주시청,1,0,054-779-8760,경상북도 경주시 교동 1,1,간이화장실,1,129.218967,0,,0,0,35.832632,0,,2018-02-20
통일전 주차장,N,0,24시간,경상북도 경주시청,2,0,054-779-8761,경상북도 경주시 남산동 941,3,공중화장실,4,129.243051,0,경상북도 경주시 칠불암길 12,0,0,35.79686,0,,2018-02-20
노동고분(조립),N,0,24시간,경상북도 경주시청,1,0,054-779-8750,경상북도 경주시 노동동 261,2,공중화장실,1,129.210646,0,,0,0,35.841266,0,,2018-02-20
탈해왕릉,N,1,24시간,경상북도 경주시청,3,0,054-779-8750,경상북도 경주시 동천동 515-4,4,공중화장실,4,129.232425,0,경상북도 경주시 윗동천안길 93,0,0,35.85106,1,,2018-02-20
헌덕왕흥,N,0,24시간,경상북도 경주시청,1,0,054-779-8750,경상북도 경주시 동천동 80,1,공중화장실,1,129.244716,0,,0,0,35.843745,0,,2018-02-20
백률사,N,0,24시간,경상북도 경주시청,1,0,054-779-8750,경상북도 경주시 동천동 산4,1,공중화장실,1,129.230614,0,,0,0,35.858024,0,,2018-02-20
포석정,N,1,24시간,경상북도 경주시청,1,1,054-779-8750,경상북도 경주시 배동 454-3,4,공중화장실,4,129.212831,0,,0,0,35.807257,1,,2018-02-20
서남산 주차장,N,1,24시간,경상북도 경주시청,3,1,054-779-8750,경상북도 경주시 배동 725,8,공중화장실,5,129.206767,0,경상북도 경주시 포석로 647,0,0,35.799637,0,,2018-02-20
배리삼존불(삼불사),N,0,24시간,경상북도 경주시청,2,0,054-779-8750,경상북도 경주시 배동 산65,5,공중화장실,3,129.210798,0,경상북도 경주시 포석로 692-25,0,0,35.802057,0,,2018-02-20
신문왕릉주차장,N,0,24시간,경상북도 경주시청,1,0,054-779-8750,경상북도 경주시 배반동 453-1,1,간이화장실,1,129.246107,0,,0,0,35.817899,0,,2018-02-20
진평왕릉,N,0,24시간,경상북도 경주시청,1,0,054-779-8750,경상북도 경주시 보문동 608,1,간이화장실,1,129.250589,0,,0,0,35.832123,0,,2018-02-20
선덕여왕릉,N,0,24시간,경상북도 경주시청,1,0,054-779-8750,경상북도 경주시 보문동 산 79-2,1,간이화장실,1,129.24269,0,,0,0,35.823671,0,,2018-02-20
무열왕릉,N,1,24시간,경상북도 경주시청,2,0,054-779-8750,경상북도 경주시 서악동 842,4,공중화장실,5,129.187576,0,,0,0,35.825008,1,,2018-02-20
흥덕왕릉,N,0,24시간,경상북도 경주시청,1,0,054-779-8750,경상북도 경주시 안강읍 육통리 산 42,2,공중화장실,2,129.207524,0,,0,0,36.01904,0,,2018-02-20
감은사지 주차장,N,1,24시간,경상북도 경주시청,2,0,054-779-8750,경상북도 경주시 양북면 용당리 55-1,4,공중화장실,3,129.476628,0,,0,0,35.748312,1,,2018-02-20
괘릉,N,1,24시간,경상북도 경주시청,2,0,054-779-8750,경상북도 경주시 외동읍 괘릉리 산17,4,공중화장실,3,129.319039,0,경상북도 경주시 외동읍 신계입실길 139,0,0,35.759503,1,,2018-02-20
동궁과월지(안압지),N,1,24시간,경상북도 경주시청,2,0,054-779-8750,경상북도 경주시 인왕동 26,10,공중화장실,4,129.217871,0,경상북도 경주시 원화로 221번길36-2,0,0,35.837493,1,,2018-02-20
첨성대,N,1,24시간,경상북도 경주시청,3,1,054-779-8750,경상북도 경주시 인왕동 839-1,7,공중화장실,5,129.219033,0,,0,0,35.834682,1,,2018-02-20
상서장 주차장,N,0,24시간,경상북도 경주시청,1,0,054-779-8750,경상북도 경주시 인왕동 산37-2,0,간이화장실,1,129.224443,0,경상북도 경주시 서라벌대로 105-12,0,0,35.824429,0,,2018-02-20
불곡석불입구,N,0,24시간,경상북도 경주시청,1,0,054-779-8750,경상북도 경주시 인왕동 산56,1,공중화장실,1,129.228248,0,,0,0,35.816353,0,,2018-02-20
불국사 남측,N,1,24시간,경상북도 경주시청,4,1,054-779-8750,경상북도 경주시 진현동 15,12,공중화장실,12,129.333027,0,경상북도 경주시 불국로 385,0,0,35.789377,0,,2018-02-20
불국사 북측,N,1,24시간,경상북도 경주시청,4,1,054-779-8750,경상북도 경주시 진현동 16,12,공중화장실,12,129.330583,0,경상북도 경주시 불국로 385,0,0,35.789763,0,,2018-02-20
불국사 녹지대,N,1,24시간,경상북도 경주시청,2,1,054-779-8750,경상북도 경주시 진현동 17,4,공중화장실,4,129.331125,0,경상북도 경주시 불국로 385,0,0,35.789674,1,,2018-02-20
석굴암 주차장,N,1,24시간,경상북도 경주시청,10,0,054-779-8750,경상북도 경주시 진현동 산90-2,16,공중화장실,16,129.350336,0,,0,0,35.793138,1,,2018-02-20
장군묘,N,1,24시간,경상북도 경주시청,2,1,054-779-8750,경상북도 경주시 충효동 산7-1,6,공중화장실,5,129.195689,0,,0,0,35.846385,1,,2018-02-20
장군묘입구주차장,N,0,24시간,경상북도 경주시청,1,0,054-779-8750,경상북도 경주시 충효동 산7-1,0,간이화장실,1,129.195689,0,,0,0,35.846385,0,,2018-02-20
오릉정문,N,0,24시간,경상북도 경주시청,2,0,054-779-8750,경상북도 경주시 탑동 67,3,공중화장실,3,129.208824,0,,0,0,35.823448,0,,2018-02-20
오릉북쪽,N,1,24시간,경상북도 경주시청,2,0,054-779-8750,경상북도 경주시 탑동 67-1,3,공중화장실,3,129.208824,0,,0,0,35.823448,0,,2018-02-20
진덕여왕릉 입구,N,0,24시간,경상북도 경주시청,1,0,054-779-8750,경상북도 경주시 현곡면 오류리 산 7,1,간이화장실,1,129.204887,0,경상북도 경주시 현곡면 섭들1길 24-163,0,0,35.878178,0,,2018-02-20
대릉원,N,1,24시간,경상북도 경주시청,8,1,054-779-8750,경상북도 경주시 황남동 194-11,11,공중화장실,17,129.215361,0,경상북도 경주시 첨성로 129,0,0,35.834425,0,,2018-02-20
천마총,N,1,24시간,경상북도 경주시청,3,1,054-779-8750,경상북도 경주시 황남동 216,8,공중화장실,10,129.213758,0,경상북도 경주시 포석로 1050번길 39-11,0,0,35.835204,1,,2018-02-20
열암곡,N,0,24시간,경상북도 경주시청,1,0,054-779-8750,경상북도 경주시 내남면 노곡리 산 123,3,간이화장실,2,129.234706,0,,0,0,35.764744,0,,2018-02-20
꽃단지,N,1,24시간,경상북도 경주시청,3,1,054-779-8750,경상북도 경주시 인왕동 839,7,공중화장실,5,129.218882,0,,0,0,35.834688,1,,2018-02-20
동궁과월지(주차장),N,1,24시간,경상북도 경주시청,2,0,054-779-8750,경상북도 경주시 인왕동 26,4,공중화장실,4,129.218882,0,경상북도 경주시 원화로 221번길36-2,0,0,35.834688,1,,2018-02-20
연꽃단지,N,0,24시간,경상북도 경주시청,1,0,054-779-8750,경상북도 경주시 인왕동 26,1,간이화장실,1,129.218882,0,,0,0,35.834688,0,,2018-02-20
